customer_id,order_city,order_postal,order_state,latitude,longitude
18287,Rock springs,82901-7321,WY,41.5869,-109.2048
18283,Jackson,83001-9460,WY,43.48,-110.7618
18282,Greybull,82426,WY,44.4892,-108.0562
18281,Evanston,82930-4706,WY,41.268,-110.9633
18280,Cheyenne,82001-7901,WY,41.14,-104.8202
18278,Wheeling,26003-6635,WV,40.064,-80.7209
18277,Shepherdstown,25443-4827,WV,39.4301,-77.8042
18276,Ridgeley,26753-7083,WV,39.6415,-78.7745
18274,Mount hope,25880-1324,WV,37.8954,-81.1643
18273,Mount clare,26408-6998,WV,39.19,-80.33
18272,Moundsville,26041-4037,WV,39.9204,-80.7431
18270,Morgantown,26508-8649,WV,39.6295,-79.9559
18269,Morgantown,26508-4276,WV,39.6295,-79.9559
18268,Martinsburg,25404,WV,39.4561,-77.9638
18265,Jumping branch,25969,WV,37.6576,-80.9765
18263,Fayetteville,25840,WV,38.0531,-81.104
18262,Fairmont,26554-8240,WV,39.4851,-80.1426
18261,Colliers,26035-1500,WV,40.367,-80.5412
18260,Colliers,26035,WV,40.367,-80.5412
18259,Charleston,25387-1201,WV,38.3506,-81.6333
18257,Charleston,25304-1451,WV,38.3506,-81.6333
18256,Chapmanville,25508,WV,37.9737,-82.0174
18255,Sun prairie,53590,WI,43.1835,-89.2134
18252,Rice lake,54868,WI,45.5028,-91.7332
18251,Kaukauna,54130,WI,44.278,-88.2721
18250,Weston,54476-1956,WI,,
18249,West allis,53219-2056,WI,43.0167,-88.007
18248,Wauwatosa,53213-1221,WI,43.0494,-88.0079
18246,Wausau,54401-3972,WI,44.9596,-89.6298
18245,Waunakee,53597,WI,43.1919,-89.4557
18242,Wales,53183,WI,43.0045,-88.3768
18241,Sun prairie,53590-3830,WI,43.1835,-89.2134
18240,Solon springs,54873-8132,WI,46.3533,-91.8224
18239,Slinger,53086-9103,WI,43.3334,-88.2858
18237,Schofield,54476-1331,WI,44.9097,-89.6046
18236,Salem,53168,WI,42.5547,-88.1109
18235,Racine,53405-5032,WI,42.7261,-87.7825
18233,Port washington,53074-1531,WI,43.3872,-87.8756
18232,Pleasant prairie,53158-3842,WI,42.5523,-87.9314
18231,Platteville,53818-1946,WI,42.7343,-90.4784
18230,Pardeeville,53954-9472,WI,43.5378,-89.3001
18229,Oshkosh,54902-9176,WI,44.0207,-88.5409
18228,Oregon,53575,WI,42.926,-89.3843
18227,Onalaska,54650-2130,WI,43.8831,-91.2344
18226,Oconto falls,54154-1602,WI,44.8739,-88.1429
18225,Oconomowoc,53066-3475,WI,43.1117,-88.4993
18224,North fond du lac,54937-1219,WI,43.8114,-88.4834
18223,New berlin,53151-2522,WI,42.9765,-88.109
18222,Neshkoro,54960-8708,WI,43.9658,-89.2176
18221,Neenah,54956-2031,WI,44.1858,-88.4626
18220,Muskego,53150-9607,WI,42.9058,-88.139
18219,Muskego,53150-6204,WI,42.9058,-88.139
18218,Minong,54859-4601,WI,46.0994,-91.8248
18217,Milwaukee,53211-2812,WI,43.0115,-87.9735
18216,Milwaukee,53211,WI,43.0115,-87.9735
18215,Milwaukee,53206,WI,43.0115,-87.9735
18213,Milton,53563,WI,42.7756,-88.944
18212,Middleton,53562-3555,WI,43.1056,-89.5089
18211,Mequon,53092-5531,WI,43.2219,-87.9823
18210,Menasha,54952-9507,WI,44.2022,-88.4465
18209,Medford,54451-9344,WI,45.1389,-90.3461
18205,Mayville,53050,WI,43.4942,-88.5448
18204,Marshfield,54449,WI,44.6689,-90.1718
18203,Manitowoc,54220-9352,WI,44.0886,-87.6576
18202,Manitowoc,54220,WI,44.0886,-87.6576
18200,Malone,53049-1526,WI,43.8603,-88.2815
18198,Madison,53703,WI,43.0748,-89.3838
18196,Madison,53714-3330,WI,43.0748,-89.3838
18194,Madison,53705-1435,WI,43.0748,-89.3838
18193,Madison,53704-2017,WI,43.0748,-89.3838
18192,Madison,53703-2938,WI,43.0748,-89.3838
18191,Madison,53703-1504,WI,43.0748,-89.3838
18190,Lake geneva,53147-2009,WI,42.5917,-88.4334
18189,Lacrosse,54601,WI,43.8014,-91.2396
18188,La valle,53941-9430,WI,43.5822,-90.1282
18185,Kewaskum,53040,WI,43.5214,-88.2279
18184,Kenosha,53142-3957,WI,42.5847,-87.8212
18183,Kenosha,53142,WI,42.5847,-87.8212
18181,Hudson,54016,WI,44.9747,-92.7569
18180,Holmen,54636-9230,WI,43.9633,-91.2563
18179,Hiles,54511-8954,WI,,
18178,Hayward,54843-4043,WI,46.013,-91.4849
18177,Greenleaf,54126-9616,WI,44.3136,-88.0957
18176,Green bay,54311-4509,WI,44.5299,-88.0248
18174,Green bay,54311,WI,44.5299,-88.0248
18173,Green bay,54301-2424,WI,44.5299,-88.0248
18172,Green bay,54301-1044,WI,44.5299,-88.0248
18171,Franklin,53132-8354,WI,42.8886,-88.0384
18170,Franklin,53132-8192,WI,42.8886,-88.0384
18169,Franklin,53132-8016,WI,42.8886,-88.0384
18168,Elkhorn,53121-4530,WI,42.6728,-88.5445
18167,Eau galle,54737-9562,WI,,
18165,Delavan,53115,WI,42.6331,-88.6437
18164,De pere,54115-4123,WI,44.4487,-88.0601
18161,Danbury,54830,WI,46.0066,-92.3713
18160,Colby,54421-9775,WI,44.91,-90.3157
18159,Cedarburg,53012-2729,WI,43.2967,-87.9876
18158,Cedarburg,53012,WI,43.2967,-87.9876
18156,Butler,53007-1204,WI,43.1058,-88.0695
18155,Burlington,53105-3603,WI,42.6781,-88.2762
18154,Brookfield,53045-7818,WI,43.0606,-88.1065
18151,Brookfield,53005-1673,WI,43.0606,-88.1065
18150,Birnamwood,54414,WI,44.9333,-89.2096
18149,Birchwood,54817-9013,WI,45.6663,-91.556
18147,Beaver dam,53916-1246,WI,43.4578,-88.8373
18146,Argyle,53504-9725,WI,42.701,-89.8672
18145,Appleton,54915-7421,WI,44.2611,-88.4068
18144,Appleton,54914-6428,WI,44.2611,-88.4068
18143,Volga,26238-8633,WV,39.0784,-80.1354
18142,Yakima,98908-1716,WA,46.6016,-120.5108
18141,Vancouver,98685-3870,WA,45.6307,-122.6745
18139,Vancouver,98664-3431,WA,45.6307,-122.6745
18138,Vancouver,98664,WA,45.6307,-122.6745
18136,Oak harbor,98277-7843,WA,48.2932,-122.6432
18135,Mount vernon,98273,WA,48.42,-122.3264
18133,Moses lake,98837,WA,47.1301,-119.2781
18130,Monroe,98272-1721,WA,47.856,-121.9706
18129,Woodinville,98072-9249,WA,47.7546,-122.1589
18127,Woodinville,98072-6446,WA,47.7546,-122.1589
18126,Wenatchee,98801-9159,WA,47.4235,-120.3103
18125,Washougal,98671,WA,45.582,-122.348
18123,Walla walla,99362,WA,46.065,-118.3303
18122,Veradale,99037-8227,WA,47.656,-117.2016
18121,Vashon,98070-3224,WA,47.4446,-122.459
18120,Vancouver,98662-4720,WA,45.6307,-122.6745
18119,Tukwila,98168,WA,47.4627,-122.2559
18118,Tacoma,98422-3480,WA,47.2496,-122.4399
18117,Tacoma,98406-5824,WA,47.2496,-122.4399
18116,Spokane,99223-6365,WA,47.6589,-117.4247
18114,Spokane,99208-8213,WA,47.6589,-117.4247
18113,Spokane,99206-4437,WA,47.6589,-117.4247
18112,Spokane,99205-7633,WA,47.6589,-117.4247
18110,Spokane,99203-1960,WA,47.6589,-117.4247
18109,Spokane,99201,WA,47.6589,-117.4247
18108,Snohomish,98290-6215,WA,47.918,-122.09
18106,Snohomish,98290-4112,WA,47.918,-122.09
18105,Silverdale,98383-9280,WA,47.6594,-122.6766
18104,Silverdale,98383-3600,WA,47.6594,-122.6766
18102,Shoreline,98133-4705,WA,47.7563,-122.3438
18101,Shelton,98584-7265,WA,47.2151,-123.1007
18099,Sequim,98382-3171,WA,48.0849,-123.1097
18097,Seattle,98199-2540,WA,47.6038,-122.3301
18096,Seattle,98199,WA,47.6038,-122.3301
18095,Seattle,98146-3578,WA,47.6038,-122.3301
18094,Seattle,98146,WA,47.6038,-122.3301
18093,Seattle,98122-4807,WA,47.6038,-122.3301
18092,Seattle,98122-4534,WA,47.6038,-122.3301
18088,Seattle,98121-1453,WA,47.6038,-122.3301
18087,Seattle,98116,WA,47.6038,-122.3301
18086,Seattle,98115-6303,WA,47.6038,-122.3301
18085,Seattle,98112-4828,WA,47.6038,-122.3301
18084,Seattle,98109-5334,WA,47.6038,-122.3301
18082,Seattle,98107,WA,47.6038,-122.3301
18081,Seattle,98106-2403,WA,47.6038,-122.3301
18080,Seattle,98106-2137,WA,47.6038,-122.3301
18079,Seattle,98105-2445,WA,47.6038,-122.3301
18078,Seattle,98104-4084,WA,47.6038,-122.3301
18077,Seattle,98104-2323,WA,47.6038,-122.3301
18075,Seattle,98104-1366,WA,47.6038,-122.3301
18074,Seattle,98103,WA,47.6038,-122.3301
18073,Seattle,98101-4206,WA,47.6038,-122.3301
18072,Seattle,98101-2033,WA,47.6038,-122.3301
18071,Sammamish,98074-6678,WA,47.6088,-122.0423
18069,Renton,98058,WA,47.4799,-122.2034
18068,Renton,98057-2178,WA,47.4799,-122.2034
18067,Renton,98056,WA,47.4799,-122.2034
18066,Redmond,98053-8607,WA,47.6694,-122.1239
18065,Redmond,98053-2028,WA,47.6694,-122.1239
18064,Quil ceda village,98271-8085,WA,,
18062,Puyallup,98374,WA,47.1849,-122.2921
18061,Puyallup,98372-5275,WA,47.1849,-122.2921
18059,Poulsbo,98370-9540,WA,47.7391,-122.6393
18058,Port orchard,98367-8275,WA,47.5316,-122.6384
18056,Point roberts,98281-9712,WA,48.9854,-123.078
18055,Olympia,98516-6801,WA,47.045,-122.8949
18053,Olympia,98512-9452,WA,47.045,-122.8949
18050,Olalla,98359,WA,47.4305,-122.5429
18048,Nine mile falls,99026-9243,WA,47.7757,-117.5461
18045,Mount vernon,98274-8224,WA,48.42,-122.3264
18044,Mill creek,98012-8401,WA,47.8601,-122.2043
18043,Mill creek,98012-4926,WA,47.8601,-122.2043
18042,Maple falls,98266-7015,WA,48.9243,-122.0771
18041,Lynnwood,98087-8427,WA,47.8279,-122.3054
18040,Lynden,98264-9446,WA,48.9466,-122.4569
18037,Lynden,98264,WA,48.9466,-122.4569
18036,Langley,98260-8018,WA,48.04,-122.4094
18035,Lakewood,98498-6500,WA,47.1718,-122.5185
18034,Lake stevens,98258-8499,WA,48.0198,-122.0661
18033,La conner,98257-0839,WA,48.3887,-122.4963
18032,La center,98629-5409,WA,45.8639,-122.6686
18030,Kirkland,98033-8302,WA,47.686,-122.192
18027,Kirkland,98033,WA,47.686,-122.192
18024,Kent,98030-8894,WA,47.3827,-122.227
18022,Kenmore,98028-3361,WA,47.7573,-122.244
18019,Issaquah,98027-5619,WA,47.5349,-122.0433
18018,Issaquah,98027-3644,WA,47.5349,-122.0433
18017,Indianola,98342,WA,47.7514,-122.5228
18016,Graham,98338,WA,47.0396,-122.2786
18015,Gig harbor,98332-9626,WA,47.326,-122.5879
18014,Gig harbor,98332-5503,WA,47.326,-122.5879
18013,Gig harbor,98332,WA,47.326,-122.5879
18011,Fircrest,98466,WA,47.2317,-122.5143
18010,Everett,98208-3119,WA,47.9673,-122.2014
18009,Everett,98203-2734,WA,47.9673,-122.2014
18008,Enumclaw,98022,WA,47.2048,-121.9916
18006,Edmonds,98026-7305,WA,47.8106,-122.3775
18005,East wenatchee,98802,WA,47.4157,-120.2931
18004,Duvall,98019-8134,WA,47.7423,-121.9857
18001,Des moines,98198-8532,WA,47.3988,-122.3099
17999,Colville,99114-2015,WA,48.5466,-117.9055
17997,Chelan,98816,WA,47.841,-120.0165
17995,Chehalis,98532-1606,WA,46.66,-122.9634
17994,Centralia,98531,WA,46.7204,-122.9614
17991,Burlington,98233-2910,WA,48.4757,-122.3254
17990,Burien,98166-2333,WA,47.4699,-122.3485
17988,Brush prairie,98606-7281,WA,45.7289,-122.5421
17987,Brush prairie,98606,WA,45.7289,-122.5421
17986,Brier,98036-8489,WA,47.7845,-122.2743
17985,Bothell,98021-8040,WA,47.7599,-122.2068
17984,Bothell,98012-7472,WA,47.7599,-122.2068
17980,Bothell,98011-2347,WA,47.7599,-122.2068
17979,Bellingham,98229-9351,WA,48.7544,-122.4789
17978,Bellingham,98229-2519,WA,48.7544,-122.4789
17977,Bellingham,98229,WA,48.7544,-122.4789
17976,Bellingham,98226-9441,WA,48.7544,-122.4789
17975,Bellingham,98226-4632,WA,48.7544,-122.4789
17974,Bellingham,98225-3525,WA,48.7544,-122.4789
17973,Bellingham,98225-2728,WA,48.7544,-122.4789
17972,Bellevue,98008,WA,47.6144,-122.1923
17970,Bellevue,98005,WA,47.6144,-122.1923
17969,Bellevue,98004-8533,WA,47.6144,-122.1923
17968,Bellevue,98004-6725,WA,47.6144,-122.1923
17967,Bellevue,98004-5133,WA,47.6144,-122.1923
17966,Bellevue,98004-5058,WA,47.6144,-122.1923
17965,Battle ground,98604-6439,WA,45.7814,-122.5337
17964,Bainbridge island,98110-2641,WA,47.6553,-122.5351
17962,Auburn,98092-3284,WA,47.3075,-122.2302
17961,Arlington,98223-5024,WA,48.1811,-122.139
17960,Anacortes,98221-1722,WA,48.502,-122.6237
17958,Stowe,5672,VT,44.4656,-72.6849
17957,Rutland,5701,VT,43.6106,-72.9726
17956,Northfield,05663-6155,VT,44.1512,-72.6565
17955,Burlington,05408-2667,VT,44.4724,-73.2115
17954,Barre,05641-4922,VT,44.197,-72.502
17951,Yorktown,23693-4433,VA,37.2379,-76.5081
17950,Williamsburg,23188,VA,37.2707,-76.7075
17949,Vienna,22182-3405,VA,38.9013,-77.2652
17948,Vienna,22182,VA,38.9013,-77.2652
17947,Suffolk,23434-6211,VA,36.7282,-76.5836
17946,Springfield,22152-2216,VA,38.7891,-77.187
17942,Springfield,22150,VA,38.7891,-77.187
17941,South hill,23970,VA,36.7265,-78.1291
17940,Roanoke city,24014,VA,,
17939,Reston,20190,VA,38.9584,-77.358
17937,Port haywood,23138-2096,VA,37.386,-76.3172
17936,Manassas,20110-7942,VA,38.7509,-77.4753
17935,Henrico,23238-3846,VA,37.65,-77.61
17934,Falls church,22041-2508,VA,38.8823,-77.1711
17932,Chester,23831,VA,37.3569,-77.4422
17931,Chatham,24531,VA,36.8257,-79.3981
17930,Centreville,20121,VA,38.8404,-77.4289
17929,Centreville,20120,VA,38.8404,-77.4289
17928,Hyde park,05655-9361,VT,44.5939,-72.6165
17926,Virginia beach,23454-2613,VA,36.853,-75.9774
17925,Yorktown,23692-4087,VA,37.2379,-76.5081
17924,Wytheville,24382-1633,VA,36.948,-81.087
17923,Woodbridge,22192,VA,38.6582,-77.2497
17921,Wirtz,24184-3899,VA,37.0765,-79.8895
17920,Windsor,23487-8912,VA,36.8085,-76.7441
17919,Williamsburg,23188-8913,VA,37.2707,-76.7075
17917,Williamsburg,23188-2809,VA,37.2707,-76.7075
17914,Williamsburg,23188-1115,VA,37.2707,-76.7075
17913,Williamsburg,23188,VA,37.2707,-76.7075
17912,Warrenton,20186-9650,VA,38.7135,-77.7954
17911,Virginia beach,23456,VA,36.853,-75.9774
17908,Virginia beach,23455,VA,36.853,-75.9774
17906,Virginia beach,23454-6807,VA,36.853,-75.9774
17905,Virginia beach,23453-6656,VA,36.853,-75.9774
17904,Virginia beach,23451,VA,36.853,-75.9774
17901,Vienna,22182-2382,VA,38.9013,-77.2652
17900,Vienna,22180-4105,VA,38.9013,-77.2652
17899,Toano,23168-9120,VA,37.3799,-76.8041
17898,Sterling,20165-7311,VA,39.0016,-77.4032
17897,Sterling,20164-2329,VA,39.0016,-77.4032
17896,Springfield,22151-3925,VA,38.7891,-77.187
17895,Spotsylvania,22551-6513,VA,38.1881,-77.6742
17894,Ruckersville,22968-2336,VA,38.2332,-78.3692
17893,Rockville,23146-1629,VA,37.726,-77.6783
17892,Rockbridge baths,24473-2310,VA,37.94,-79.39
17891,Roanoke,24019-6010,VA,37.271,-79.9414
17890,Roanoke,24018-9149,VA,37.271,-79.9414
17889,Richmond,23238,VA,37.5385,-77.4343
17888,Richmond,23233-6605,VA,37.5385,-77.4343
17887,Richmond,23230-5028,VA,37.5385,-77.4343
17886,Richmond,23224,VA,37.5385,-77.4343
17885,Richmond,23223-2427,VA,37.5385,-77.4343
17884,Richmond,23223-1159,VA,37.5385,-77.4343
17883,Richmond,23221-3318,VA,37.5385,-77.4343
17881,Richmond,23221-3212,VA,37.5385,-77.4343
17880,Reston,20191,VA,38.9584,-77.358
17879,Reston,20190-4716,VA,38.9584,-77.358
17878,Purcellville,20132-5100,VA,39.1368,-77.7147
17877,Potomac falls,20165-5662,VA,,
17874,Portsmouth,23703,VA,36.8354,-76.2983
17873,Orange,22960-2608,VA,38.2454,-78.1108
17871,Orange,22960-1733,VA,38.2454,-78.1108
17870,Oakton,22124-2002,VA,38.8814,-77.3006
17869,North chesterfield,23235-6063,VA,,
17867,Norfolk,23505-2603,VA,36.8465,-76.2916
17866,Norfolk,23504-3901,VA,36.8465,-76.2916
17865,Norfolk,23503-3406,VA,36.8465,-76.2916
17864,Norfolk,23502-4009,VA,36.8465,-76.2916
17863,Montpelier,23192-2050,VA,37.8213,-77.6844
17862,Midlothian,23113-1108,VA,37.5063,-77.6493
17861,Midlothian,23112-4492,VA,37.5063,-77.6493
17860,Mclean,22102-7722,VA,38.92,-77.22
17859,Mclean,22101,VA,38.92,-77.22
17858,Manassas,20112,VA,38.7509,-77.4753
17857,Manassas,20110-5688,VA,38.7509,-77.4753
17856,Louisa,23093-5506,VA,38.025,-78.0036
17855,Leesburg,20175-6596,VA,39.1154,-77.5645
17854,Herndon,20171-4829,VA,38.9695,-77.3859
17852,Herndon,20170-2500,VA,38.9695,-77.3859
17850,Heathsville,22473-2244,VA,37.9176,-76.4722
17849,Haymarket,20169-2631,VA,38.8121,-77.6367
17848,Haymarket,20169,VA,38.8121,-77.6367
17846,Hampton,23666-1813,VA,37.0301,-76.3452
17844,Hampton,23666-1741,VA,37.0301,-76.3452
17843,Grottoes,24441-4609,VA,38.2674,-78.8259
17841,Great falls,22066-1101,VA,38.9982,-77.2883
17839,Gordonsville,22942-9618,VA,38.1374,-78.1878
17838,Fredericksburg,22407-5211,VA,38.2968,-77.4834
17837,Falls church,22046-3626,VA,38.8823,-77.1711
17836,Falls church,22044-2630,VA,38.8823,-77.1711
17835,Falls church,22042-2910,VA,38.8823,-77.1711
17832,Fairfax,22033-2159,VA,38.8462,-77.3064
17831,Fairfax,22033,VA,38.8462,-77.3064
17830,Fairfax,22032-2035,VA,38.8462,-77.3064
17829,Fairfax,22032,VA,38.8462,-77.3064
17828,Fairfax,22031-4734,VA,38.8462,-77.3064
17827,Dillwyn,23936-2471,VA,37.5429,-78.4572
17824,Concord,24538-3359,VA,37.3426,-78.975
17820,Collinsville,24078-3077,VA,36.7151,-79.9153
17819,Clifton,20124-1098,VA,38.7802,-77.3865
17817,Chesapeake,23323,VA,36.7184,-76.2467
17816,Chesapeake,23322-7479,VA,36.7184,-76.2467
17813,Chesapeake,23322-3980,VA,36.7184,-76.2467
17812,Chesapeake,23322,VA,36.7184,-76.2467
17811,Chesapeake,23320-5202,VA,36.7184,-76.2467
17809,Charlottesville,22911-8412,VA,38.0293,-78.4767
17806,Charlottesville,22911,VA,38.0293,-78.4767
17805,Charlottesville,22903-9369,VA,38.0293,-78.4767
17802,Charlottesville,22903-4047,VA,38.0293,-78.4767
17800,Centreville,20121,VA,38.8404,-77.4289
17799,Burke,22015-4238,VA,38.7771,-77.2755
17797,Burke,22015-1697,VA,38.7771,-77.2755
17796,Burke,22015,VA,38.7771,-77.2755
17795,Blackstone,23824-2608,VA,37.0804,-77.9972
17793,Blacksburg,24060-8835,VA,37.2297,-80.4137
17791,Berryville,22611-1438,VA,39.1518,-77.9822
17790,Bedford,24523-3238,VA,37.3345,-79.5235
17789,Bedford,24523,VA,37.3345,-79.5235
17788,Aylett,23009-2103,VA,37.786,-77.105
17787,Ashburn,20147-2934,VA,39.0437,-77.4875
17786,Arlington,22207-5165,VA,38.8769,-77.0893
17785,Arlington,22206-3147,VA,38.8769,-77.0893
17783,Arlington,22202-5124,VA,38.8769,-77.0893
17781,Arlington,22202-2397,VA,38.8769,-77.0893
17779,Arlington,22201-3804,VA,38.8769,-77.0893
17777,Amherst,24521,VA,37.5851,-79.0514
17775,Alexandria,22314-6802,VA,38.8051,-77.047
17774,Alexandria,22308-2743,VA,38.8051,-77.047
17772,Alexandria,22303-1561,VA,38.8051,-77.047
17771,Alexandria,22302-2716,VA,38.8051,-77.047
17770,Alexandria,22302-1721,VA,38.8051,-77.047
17769,Alexandria,22301-1038,VA,38.8051,-77.047
17768,Sandy,84092-5238,UT,40.5749,-111.848
17767,Salem,84653,UT,40.053,-111.6735
17765,Pleasant grove,84062-2165,UT,40.3641,-111.7385
17764,Holden,84636-0038,UT,39.0989,-112.2708
17763,American fork,84003-1866,UT,40.3769,-111.7958
17761,West valley,84119-4286,UT,,
17760,West haven,84401-8460,UT,41.205,-112.0489
17759,Vernal,84078,UT,40.4555,-109.5287
17758,Tooele,84074-2409,UT,40.5308,-112.2983
17757,Tooele,84074-1953,UT,40.5308,-112.2983
17754,Santaquin,84655-7903,UT,39.9755,-111.7852
17752,Santa clara,84765-5750,UT,37.133,-113.6541
17750,Sandy,84093-6426,UT,40.5749,-111.848
17749,Sandy,84092-3067,UT,40.5749,-111.848
17747,Salt lake city,84124-1846,UT,40.767,-111.8904
17746,Salt lake city,84115-2216,UT,40.767,-111.8904
17744,Salt lake city,84109-1628,UT,40.767,-111.8904
17742,Salt lake city,84106,UT,40.767,-111.8904
17739,Salt lake city,84105-3746,UT,40.767,-111.8904
17738,Saint george,84770-6582,UT,37.11,-113.56
17737,Provo,84604-4245,UT,40.2338,-111.6585
17736,Pleasant grove,84062,UT,40.3641,-111.7385
17735,Orem,84097-6425,UT,40.2975,-111.6945
17734,North salt lake,84054-3043,UT,40.8486,-111.9069
17733,North ogden,84414-3408,UT,41.3071,-111.9602
17732,Midvale,84047,UT,40.6111,-111.8999
17731,Lindon,84042-1947,UT,40.3433,-111.7208
17730,Cedar city,84720-3319,UT,37.6775,-113.0619
17728,Bountiful,84010-8055,UT,40.8895,-111.8805
17727,Chester,23831,VA,37.3569,-77.4422
17725,Zapata,78076,TX,26.988,-99.1674
17724,Wimberley,78676,TX,29.9974,-98.0986
17723,West lake hills,78746-5502,TX,30.298,-97.8019
17722,West,76691-1512,TX,31.8035,-97.0933
17720,Weslaco,78599-4584,TX,26.1595,-97.9908
17719,Waxahachie,75165-1552,TX,32.3865,-96.8483
17718,Watauga,76148,TX,32.8579,-97.2547
17716,Watauga,76137-4758,TX,32.8579,-97.2547
17715,Waco,76710,TX,31.5493,-97.1467
17714,Waco,76708,TX,31.5493,-97.1467
17712,Vidor,77662-8318,TX,30.1316,-94.0155
17711,Vidor,77662,TX,30.1316,-94.0155
17709,Van,75790,TX,32.5249,-95.6372
17708,Tyler,75703-9381,TX,32.3513,-95.3011
17707,Tomball,77377-9017,TX,30.0972,-95.6161
17706,The woodlands,77382,TX,30.1734,-95.5047
17705,The hills,78738-1421,TX,,
17704,The hills,78738,TX,,
17703,Texarkana,75501-2956,TX,33.4251,-94.0477
17702,Temple,76502-6078,TX,31.0982,-97.3428
17701,Sugar land,77479-4786,TX,29.6197,-95.6349
17700,Spring,77388-5459,TX,30.0799,-95.4173
17698,Spring,77388-4862,TX,30.0799,-95.4173
17697,Spring,77386-4173,TX,30.0799,-95.4173
17696,Spring,77386,TX,30.0799,-95.4173
17695,Spicewood,78669-2324,TX,30.4755,-98.1564
17694,Southlake,76092-9427,TX,32.9412,-97.1342
17693,Smithville,78957-5176,TX,30.0086,-97.1594
17692,Smithville,78957-2299,TX,30.0086,-97.1594
17691,Seguin,78155-8700,TX,29.5688,-97.9647
17690,Seadrift,77983-0726,TX,28.4153,-96.7136
17686,Seabrook,77586-1680,TX,29.5633,-95.0197
17685,Seabrook,77586,TX,29.5633,-95.0197
17684,San antonio,78255-1028,TX,29.4246,-98.4951
17682,San antonio,78254-6060,TX,29.4246,-98.4951
17680,San antonio,78253-5538,TX,29.4246,-98.4951
17679,San antonio,78251-4995,TX,29.4246,-98.4951
17678,San antonio,78250-6516,TX,29.4246,-98.4951
17677,San antonio,78250-4312,TX,29.4246,-98.4951
17676,San antonio,78249-3865,TX,29.4246,-98.4951
17675,San antonio,78245-3475,TX,29.4246,-98.4951
17674,San antonio,78217-3405,TX,29.4246,-98.4951
17673,San antonio,78216-2135,TX,29.4246,-98.4951
17672,San antonio,78215-1944,TX,29.4246,-98.4951
17671,San antonio,78212-5219,TX,29.4246,-98.4951
17670,San antonio,78212-2357,TX,29.4246,-98.4951
17669,San antonio,78210-1801,TX,29.4246,-98.4951
17668,San antonio,78209-4933,TX,29.4246,-98.4951
17667,San angelo,76906,TX,31.4648,-100.4398
17666,Rowlett,75089,TX,32.9029,-96.5639
17664,Rockwall,75032-7920,TX,32.8923,-96.4067
17663,Rockwall,75032-7482,TX,32.8923,-96.4067
17660,Richmond,77469-2303,TX,29.5822,-95.7608
17659,Richmond,77469,TX,29.5822,-95.7608
17658,Richmond,77407-3790,TX,29.5822,-95.7608
17656,Richmond,77406,TX,29.5822,-95.7608
17655,Richardson,75082,TX,32.9482,-96.7297
17654,Red oak,75154-4728,TX,32.5176,-96.8044
17653,Red oak,75154-4620,TX,32.5176,-96.8044
17652,Powderly,75473-3713,TX,33.8112,-95.5244
17651,Portland,78374-2402,TX,27.8768,-97.3234
17650,Portland,78374-1915,TX,27.8768,-97.3234
17649,Plano,75075-7712,TX,33.0137,-96.6925
17648,Plano,75024-7560,TX,33.0137,-96.6925
17647,Pflugerville,78660-8022,TX,30.4394,-97.62
17646,Pasadena,77506-4967,TX,29.6911,-95.2091
17644,Pasadena,77504-3137,TX,29.6911,-95.2091
17643,Paris,75460-4792,TX,33.6618,-95.5555
17642,Pampa,79065-2901,TX,35.5362,-100.9599
17640,Nolanville,76559-4653,TX,31.0788,-97.6056
17639,New ulm,78950-2221,TX,29.8922,-96.4902
17637,New braunfels,78132-4634,TX,29.7026,-98.1256
17636,Mountain city,78610-9237,TX,30.0381,-97.8909
17634,Montgomery,77316-2811,TX,30.3883,-95.6963
17633,Missouri city,77459-4574,TX,29.6186,-95.5377
17631,Missouri city,77459-2613,TX,29.6186,-95.5377
17630,Mission,78572-8952,TX,26.2159,-98.3253
17629,Midlothian,76065-4582,TX,32.4824,-96.9944
17628,Meyersville,77974,TX,28.88,-97.27
17625,Meadowlakes,78654-7008,TX,,
17624,Mckinney,75070-2964,TX,33.1976,-96.6154
17623,Mckinney,75070,TX,33.1976,-96.6154
17621,Mcallen,78501,TX,26.2044,-98.2301
17620,Magnolia,77355-6284,TX,30.2094,-95.7508
17619,Lufkin,75904-7287,TX,31.3386,-94.7289
17618,Live oak,78233-2563,TX,,
17616,Lewisville,75077-2428,TX,33.0462,-96.9942
17615,Lewisville,75067-6715,TX,33.0462,-96.9942
17614,League city,77573-3076,TX,29.5075,-95.0949
17613,Laredo,78045-6604,TX,27.5061,-99.5089
17612,Lakeway,78738-1141,TX,30.3645,-97.9875
17611,Kyle,78640-8813,TX,29.9893,-97.8772
17609,Kirbyville,75956-5205,TX,30.6605,-93.8927
17608,Kingwood,77339-2607,TX,30.0497,-95.1846
17604,Katy,77494-6175,TX,29.7858,-95.8244
17603,Katy,77494-4892,TX,29.7858,-95.8244
17602,Katy,77494-3992,TX,29.7858,-95.8244
17601,Katy,77449-4954,TX,29.7858,-95.8244
17600,Katy,77449-2640,TX,29.7858,-95.8244
17597,Katy,77449,TX,29.7858,-95.8244
17596,Irving,75063-8071,TX,32.814,-96.9489
17595,Irving,75063-7205,TX,32.814,-96.9489
17594,Irving,75061-8032,TX,32.814,-96.9489
17593,Irving,75038-6438,TX,32.814,-96.9489
17591,Iowa park,76367-3006,TX,33.9515,-98.6687
17590,Hurst,76053-3921,TX,32.8235,-97.1706
17589,Humble,77396-1572,TX,29.9988,-95.2622
17588,Hudson oaks,76087-8846,TX,32.7571,-97.7067
17585,Houstonhouston,77062,TX,,
17584,Houston,77094,TX,29.7589,-95.3677
17582,Houston,77090-1230,TX,29.7589,-95.3677
17581,Houston,77084-1624,TX,29.7589,-95.3677
17580,Houston,77080-3807,TX,29.7589,-95.3677
17579,Houston,77079-4076,TX,29.7589,-95.3677
17578,Houston,77069-1121,TX,29.7589,-95.3677
17576,Houston,77057-4407,TX,29.7589,-95.3677
17574,Houston,77056-3733,TX,29.7589,-95.3677
17573,Houston,77043-2804,TX,29.7589,-95.3677
17572,Houston,77042-2614,TX,29.7589,-95.3677
17571,Houston,77040-6024,TX,29.7589,-95.3677
17569,Houston,77036-5940,TX,29.7589,-95.3677
17567,Houston,77025-5209,TX,29.7589,-95.3677
17566,Houston,77025-4026,TX,29.7589,-95.3677
17564,Houston,77025-2401,TX,29.7589,-95.3677
17562,Houston,77017-5217,TX,29.7589,-95.3677
17561,Houston,77008-7060,TX,29.7589,-95.3677
17560,Houston,77006-4013,TX,29.7589,-95.3677
17557,Houston,77004-7995,TX,29.7589,-95.3677
17556,Houston,77004-6834,TX,29.7589,-95.3677
17555,Hondo,78861-5501,TX,29.3474,-99.1412
17554,Hewitt,76643-3568,TX,31.4624,-97.1958
17553,Henderson,75652-3023,TX,32.1532,-94.7994
17552,Helotes,78023-4236,TX,29.5628,-98.687
17551,Harlingen,78550-9011,TX,26.1906,-97.6961
17550,Haltom city,76117-3526,TX,32.7996,-97.2692
17549,Groom,79039,TX,35.2037,-101.1068
17548,Granbury,76049-5227,TX,32.4421,-97.7942
17547,Georgetown,78626-7328,TX,30.6327,-97.6772
17545,Garland,75040-1069,TX,32.9126,-96.6389
17542,Galveston,77551-1520,TX,29.2993,-94.7946
17540,Galveston,77550,TX,29.2993,-94.7946
17538,Gainesville,76240-9562,TX,33.6259,-97.1333
17537,Fulshear,77441-1662,TX,29.6903,-95.8996
17536,Friendswood,77546,TX,29.5294,-95.201
17535,Fort worth,76244-7256,TX,32.7532,-97.3327
17534,Fort worth,76155-2001,TX,32.7532,-97.3327
17531,Fort worth,76137-6625,TX,32.7532,-97.3327
17530,Fort worth,76132-4426,TX,32.7532,-97.3327
17528,Fort worth,76111-2924,TX,32.7532,-97.3327
17527,Fort worth,76107-4025,TX,32.7532,-97.3327
17526,Fort worth,76103-1334,TX,32.7532,-97.3327
17525,Flower mound,75028-1817,TX,33.0146,-97.097
17524,Flint,75762,TX,32.204,-95.3486
17523,Fairview,75069-1953,TX,,
17522,Fairfield,75840-5126,TX,31.7244,-96.1649
17521,Euless,76039-8304,TX,32.8371,-97.082
17520,Elmendorf,78112-6038,TX,29.2561,-98.3328
17519,El paso,79904-3010,TX,31.8064,-106.2221
17517,El paso,79936-3965,TX,31.8064,-106.2221
17516,El paso,79930,TX,31.8064,-106.2221
17515,El paso,79912-3324,TX,31.8064,-106.2221
17514,El paso,79912-1742,TX,31.8064,-106.2221
17513,East bernard,77435,TX,29.5311,-96.0711
17512,Driftwood,78619-5804,TX,30.123,-98.0308
17511,Dickinson,77539-3312,TX,29.4608,-95.0513
17510,Desoto,75115-5096,TX,32.6045,-96.8561
17509,Desoto,75115-4322,TX,32.6045,-96.8561
17508,Denton,76209,TX,33.215,-97.1331
17507,Denton,76203-5017,TX,33.215,-97.1331
17506,Decatur,76234-3219,TX,33.2343,-97.5861
17505,Dayton,77535-2002,TX,30.0466,-94.8852
17504,Dallas,75287,TX,32.7763,-96.7969
17503,Dallas,75254-2711,TX,32.7763,-96.7969
17502,Dallas,75230-5057,TX,32.7763,-96.7969
17501,Dallas,75230-4139,TX,32.7763,-96.7969
17500,Dallas,75230-3459,TX,32.7763,-96.7969
17499,Dallas,75229-4101,TX,32.7763,-96.7969
17498,Dallas,75225-4020,TX,32.7763,-96.7969
17496,Dallas,75225,TX,32.7763,-96.7969
17495,Dallas,75220,TX,32.7763,-96.7969
17492,Dallas,75219-1586,TX,32.7763,-96.7969
17491,Dallas,75214-2711,TX,32.7763,-96.7969
17490,Dallas,75214,TX,32.7763,-96.7969
17489,Dallas,75209-3524,TX,32.7763,-96.7969
17486,Dallas,75208-4949,TX,32.7763,-96.7969
17483,Dallas,75206,TX,32.7763,-96.7969
17481,Dallas,75204-2618,TX,32.7763,-96.7969
17480,Dallas,75201-2425,TX,32.7763,-96.7969
17475,Cypress,77433-0289,TX,29.9691,-95.6972
17472,Corpus christi,78418-6013,TX,27.8003,-97.3956
17470,Corpus christi,78412-3816,TX,27.8003,-97.3956
17469,Coppell,75019-7512,TX,32.9553,-97.0156
17468,Conroe,77302-5513,TX,30.3119,-95.4561
17466,Colleyville,76034,TX,32.881,-97.155
17464,Celina,75009-3821,TX,33.3246,-96.7844
17463,Cedar park,78613-3996,TX,30.5052,-97.8203
17462,Cedar park,78613-3213,TX,30.5052,-97.8203
17461,Carrollton,75010-1168,TX,33.001,-96.8922
17460,Camp verde,78010-3538,TX,,
17459,Boerne,78015-4948,TX,29.7947,-98.732
17458,Belton,76513-5609,TX,31.056,-97.4645
17457,Bellville,77418-9612,TX,29.9502,-96.2572
17456,Bellville,77418-3721,TX,29.9502,-96.2572
17455,Bellaire,77401-5318,TX,29.7058,-95.4588
17454,Bedford,76022,TX,32.844,-97.1431
17453,Beaumont,77713-9216,TX,30.086,-94.1018
17451,Bastrop,78602-4654,TX,30.1105,-97.3153
17450,Austin,78754,TX,30.2711,-97.7437
17449,Austin,78751,TX,30.2711,-97.7437
17448,Austin,78749-1127,TX,30.2711,-97.7437
17447,Austin,78748-1216,TX,30.2711,-97.7437
17446,Austin,78739-2098,TX,30.2711,-97.7437
17444,Austin,78734,TX,30.2711,-97.7437
17443,Austin,78733-4204,TX,30.2711,-97.7437
17442,Austin,78732-6119,TX,30.2711,-97.7437
17440,Austin,78732-2479,TX,30.2711,-97.7437
17438,Austin,78732-2266,TX,30.2711,-97.7437
17436,Austin,78730-4902,TX,30.2711,-97.7437
17434,Austin,78728-7018,TX,30.2711,-97.7437
17433,Austin,78728-6975,TX,30.2711,-97.7437
17432,Austin,78728-4372,TX,30.2711,-97.7437
17431,Austin,78704-4218,TX,30.2711,-97.7437
17430,Austin,78701-4254,TX,30.2711,-97.7437
17429,Aubrey,76227-4495,TX,33.3043,-96.9861
17428,Arlington,76015,TX,32.7356,-97.1071
17427,Arlington,76012,TX,32.7356,-97.1071
17426,Arlington,76006-7447,TX,32.7356,-97.1071
17425,Arlington,76002-3070,TX,32.7356,-97.1071
17423,Amarillo,79124-4971,TX,35.2072,-101.8338
17422,Amarillo,79119-7307,TX,35.2072,-101.8338
17420,Amarillo,79109-3941,TX,35.2072,-101.8338
17419,Amarillo,79109-3220,TX,35.2072,-101.8338
17418,Amarillo,79103,TX,35.2072,-101.8338
17416,Allen,75002,TX,33.1032,-96.6706
17415,Aledo,76008,TX,32.696,-97.6022
17414,Abilene,79606-3584,TX,32.4465,-99.7333
17412,Abilene,79602-1816,TX,32.4465,-99.7333
17411,Winchester,37398-1414,TN,35.186,-86.1118
17410,Tullahoma,37388-5327,TN,35.362,-86.2094
17409,Thompsons station,37179,TN,35.802,-86.9114
17408,Soddy daisy,37379-4234,TN,35.2887,-85.1666
17406,Smyrna,37167-2658,TN,35.9828,-86.5186
17405,Shelbyville,37160-5560,TN,35.4834,-86.4603
17404,Sewanee,37375,TN,35.2031,-85.9211
17403,Pulaski,38478,TN,35.1998,-87.0308
17402,Paris,38242,TN,36.302,-88.3267
17400,Old hickory,37138-1366,TN,36.2598,-86.6478
17398,Oak ridge,37830,TN,36.0104,-84.2696
17397,Normandy,37360-7906,TN,35.452,-86.2601
17396,Niota,37826-2446,TN,35.5134,-84.5452
17394,Nashville,37220,TN,36.1622,-86.7744
17392,Nashville,37215-2501,TN,36.1622,-86.7744
17391,Nashville,37215-1712,TN,36.1622,-86.7744
17389,Nashville,37214-4251,TN,36.1622,-86.7744
17388,Nashville,37211-2648,TN,36.1622,-86.7744
17387,Nashville,37205-3438,TN,36.1622,-86.7744
17386,Nashville,37204-4020,TN,36.1622,-86.7744
17385,Nashville,37204-2524,TN,36.1622,-86.7744
17384,Murfreesboro,37129-0222,TN,35.846,-86.392
17383,Mt juliet,37122-1521,TN,,
17382,Memphis,38125-4122,TN,35.149,-90.0516
17381,Memphis,38117-2535,TN,35.149,-90.0516
17379,Louisville,37777-3045,TN,35.8217,-84.048
17377,Loudon,37774-2175,TN,35.7329,-84.3338
17376,Lebanon,37090-8823,TN,36.2081,-86.2905
17375,La vergne,37086-2041,TN,36.0156,-86.5819
17374,Kodak,37764-2154,TN,35.9745,-83.6268
17373,Knoxville,37932-1940,TN,35.9604,-83.921
17372,Knoxville,37932-1041,TN,35.9604,-83.921
17371,Knoxville,37922-9420,TN,35.9604,-83.921
17370,Knoxville,37922-6686,TN,35.9604,-83.921
17368,Knoxville,37920,TN,35.9604,-83.921
17367,Knoxville,37919,TN,35.9604,-83.921
17365,Kingston,37763-4858,TN,35.8809,-84.5085
17364,Kingsport,37663,TN,36.5484,-82.5618
17362,Johnson city,37601-4904,TN,36.3134,-82.3535
17361,Jackson,38305-8552,TN,35.6145,-88.8139
17360,Jackson,38301-6223,TN,35.6145,-88.8139
17359,Huntingdon,38344-5416,TN,36.0006,-88.4281
17358,Hixson,37343-5728,TN,35.1406,-85.2327
17357,Hermitage,37076-5604,TN,36.1962,-86.6225
17356,Hendersonville,37075-8796,TN,36.3048,-86.62
17354,Hendersonville,37075-6401,TN,36.3048,-86.62
17353,Hendersonville,37075-5325,TN,36.3048,-86.62
17351,Hendersonville,37075-4594,TN,36.3048,-86.62
17350,Goodlettsville,37072-9708,TN,36.3231,-86.7133
17349,Germantown,38138-1500,TN,35.0868,-89.8101
17348,Franklin,37064-5712,TN,35.9252,-86.8689
17347,Crossville,38571-0762,TN,35.949,-85.0269
17346,Crossville,38558-2856,TN,35.949,-85.0269
17345,Collierville,38017-3701,TN,35.042,-89.6645
17344,Clarksville,37043-4536,TN,36.5286,-87.3099
17343,Chattanooga,37419-1920,TN,35.0456,-85.3097
17341,Chattanooga,37415-3596,TN,35.0456,-85.3097
17340,Brentwood,37027-5720,TN,36.0326,-86.7825
17339,Blountville,37617-5358,TN,36.5332,-82.3268
17338,Bartlett,38134-2836,TN,35.2045,-89.874
17337,Antioch,37013,TN,36.0601,-86.6722
17334,Webster,77598,TX,29.5377,-95.1183
17333,Weatherford,76086,TX,32.759,-97.7971
17331,Waco,76708-2373,TX,31.5493,-97.1467
17330,Trinity,75862-5733,TX,30.9452,-95.3755
17329,The colony,75056,TX,33.089,-96.8864
17325,Spring,77379,TX,30.0799,-95.4173
17324,Sherman,75092-4532,TX,33.636,-96.6098
17323,San marcos,78666,TX,29.8826,-97.9406
17321,San antonio,78233-5835,TX,29.4246,-98.4951
17320,Plano,75093,TX,33.0137,-96.6925
17317,Pearland,77584-9149,TX,29.564,-95.2864
17315,Pearland,77584-8720,TX,29.564,-95.2864
17314,Pasadena,77505-4344,TX,29.6911,-95.2091
17313,North richland hills,76180-8148,TX,32.8343,-97.2289
17312,Mckinney,75071,TX,33.1976,-96.6154
17311,Lewisville,75056,TX,33.0462,-96.9942
17309,Leander,78641-8503,TX,30.5788,-97.8531
17307,Kingwood,77345,TX,30.0497,-95.1846
17306,Johnson city,78636,TX,30.2769,-98.412
17303,Irving,75038,TX,32.814,-96.9489
17302,Houston,77095-2792,TX,29.7589,-95.3677
17301,Houston,77092-2608,TX,29.7589,-95.3677
17299,Houston,77078-3105,TX,29.7589,-95.3677
17298,Houston,77055-6665,TX,29.7589,-95.3677
17297,Houston,77053-4607,TX,29.7589,-95.3677
17295,Houston,77024,TX,29.7589,-95.3677
17293,Houston,77007,TX,29.7589,-95.3677
17291,Houston,77003-4502,TX,29.7589,-95.3677
17290,Henderson,75652-3204,TX,32.1532,-94.7994
17289,Hallettsville,77964-5468,TX,29.4439,-96.9411
17288,Georgetown,78633-9541,TX,30.6327,-97.6772
17287,Georgetown,78628,TX,30.6327,-97.6772
17286,Fredericksburg,78624-2506,TX,30.2752,-98.872
17284,Fort worth,76116,TX,32.7532,-97.3327
17282,Farmers branch,75234-5061,TX,32.9265,-96.8961
17279,El paso,79930-1113,TX,31.8064,-106.2221
17278,Dripping springs,78620,TX,30.1902,-98.0867
17277,Devine,78016-2409,TX,29.14,-98.9053
17274,Dallas,75216,TX,32.7763,-96.7969
17272,Cypress,77429,TX,29.9691,-95.6972
17268,College station,77845-8953,TX,30.6263,-96.3347
17267,Cibolo,78108-4304,TX,29.5616,-98.227
17266,Cedar park,78613-7836,TX,30.5052,-97.8203
17265,Cedar park,78613,TX,30.5052,-97.8203
17263,Canton,75103-8388,TX,32.5565,-95.8633
17262,Buda,78610,TX,30.0852,-97.8403
17259,Boerne,78006-7968,TX,29.7947,-98.732
17256,Austin,78759-6602,TX,30.2711,-97.7437
17255,Signal mountain,37377,TN,35.1226,-85.3438
17254,Powell,37849-3357,TN,36.0317,-84.028
17253,Nashville,37204,TN,36.1622,-86.7744
17252,Knoxville,37920-5227,TN,35.9604,-83.921
17251,Knoxville,37909,TN,35.9604,-83.921
17250,North augusta,29841,SC,33.5018,-81.9651
17248,Conway,29526-8910,SC,33.836,-79.0478
17247,Yankton,57078-6745,SD,42.8712,-97.3971
17245,Wentworth,57075-6913,SD,43.9972,-96.9642
17244,Watertown,57201-5471,SD,44.8992,-97.1153
17243,Sturgis,57785-2936,SD,44.4097,-103.5091
17242,Sioux falls,57106,SD,43.55,-96.7003
17239,Sioux falls,57105,SD,43.55,-96.7003
17238,Burbank,57010,SD,42.7453,-96.8292
17237,Big stone city,57216-8209,SD,45.2916,-96.4628
17236,Aberdeen,57401-6939,SD,45.465,-98.4878
17235,West union,29696-1323,SC,34.7598,-83.0429
17234,West columbia,29170-2764,SC,33.9935,-81.074
17233,Travelers rest,29690-9277,SC,34.9676,-82.4435
17232,Taylors,29687-7122,SC,34.9204,-82.2962
17231,Taylors,29687,SC,34.9204,-82.2962
17230,Summerville,29485-8440,SC,33.0185,-80.1756
17229,Summerville,29483-8054,SC,33.0185,-80.1756
17228,Spartanburg,29302,SC,34.9498,-81.932
17227,Spartanburg,29301,SC,34.9498,-81.932
17226,Simpsonville,29681-4764,SC,34.7371,-82.2543
17223,Simpsonville,29681,SC,34.7371,-82.2543
17222,Saint helena island,29920-7413,SC,32.3869,-80.5607
17221,Roebuck,29376,SC,34.8796,-81.9662
17220,Rock hill,29730,SC,34.9249,-81.0251
17219,Prosperity,29127-7182,SC,34.2093,-81.5332
17218,North charleston,29420-8974,SC,32.8546,-79.9748
17217,Myrtle beach,29579-6678,SC,33.6956,-78.89
17214,Mt pleasant,29466,SC,,
17213,Mauldin,29662-3256,SC,34.7787,-82.3101
17212,Lyman,29365,SC,34.9482,-82.1273
17211,Lancaster,29720-9484,SC,34.7204,-80.7709
17206,Johns island,29455-6716,SC,32.7024,-80.0481
17205,Iva,29655-8748,SC,34.3065,-82.6637
17204,Hilton head island,29928-3132,SC,32.2163,-80.7526
17203,Greer,29650-3937,SC,34.9381,-82.2272
17201,Greenville,29615-4123,SC,34.8514,-82.3985
17198,Greenville,29615,SC,34.8514,-82.3985
17197,Greenville,29609-6516,SC,34.8514,-82.3985
17194,Greenville,29609-5240,SC,34.8514,-82.3985
17193,Fort mill,29715-8213,SC,35.0074,-80.9451
17191,Florence,29506-2762,SC,34.1984,-79.7672
17190,Conway,29526-6324,SC,33.836,-79.0478
17189,Columbia,29229-9387,SC,34.0007,-81.0343
17188,Columbia,29223-3725,SC,34.0007,-81.0343
17187,Columbia,29206-1635,SC,34.0007,-81.0343
17186,Columbia,29201-3334,SC,34.0007,-81.0343
17183,Clover,29710-4717,SC,35.1112,-81.2265
17181,Chester,29706-3707,SC,34.7049,-81.2143
17180,Charleston,29492-8129,SC,32.7876,-79.9403
17179,Charleston,29414,SC,32.7876,-79.9403
17176,Charleston,29412-9546,SC,32.7876,-79.9403
17175,Charleston,29406-5030,SC,32.7876,-79.9403
17174,Cassatt,29032-9200,SC,34.3646,-80.4359
17173,Blythewood,29016-7649,SC,34.2143,-80.974
17172,Bluffton,29910-9595,SC,32.2371,-80.8604
17171,Bluffton,29910-9302,SC,32.2371,-80.8604
17169,Bluffton,29910-8837,SC,32.2371,-80.8604
17166,Bluffton,29910-4814,SC,32.2371,-80.8604
17165,Bluffton,29909-6092,SC,32.2371,-80.8604
17164,Beaufort,29902-6132,SC,32.4316,-80.6698
17163,Anderson,29625-6458,SC,34.5069,-82.6506
17162,Aiken,29803-1657,SC,33.5599,-81.722
17160,Wyoming,02898-1225,RI,41.5154,-71.7015
17159,Providence,02906-4807,RI,41.824,-71.4128
17158,Portsmouth,02871-1036,RI,41.6023,-71.2503
17157,North smithfield,02896-7027,RI,41.9668,-71.5495
17155,North providence,02904-4716,RI,41.8501,-71.4662
17154,Middletown,02842-5285,RI,41.5457,-71.2914
17153,Jamestown,02835-1031,RI,41.497,-71.3673
17152,Cranston,02920-5161,RI,41.781,-71.4371
17148,Cranston,2920,RI,41.781,-71.4371
17147,Providence,2908,RI,41.824,-71.4128
17146,Portsmouth,02871-3507,RI,41.6023,-71.2503
17144,Cranston,02921-2921,RI,41.781,-71.4371
17142,Juneau,99802,AK,58.3019,-134.4197
17140,Homer,99603,AK,59.6441,-151.5401
17139,Juneau,99802,AK,58.3019,-134.4197
17138,Homer,99603,AK,59.6441,-151.5401
17135,Wilmington,19810,DE,39.7459,-75.5466
17134,Newark,19711-3104,DE,39.6852,-75.7508
17133,Sewickley,15143,PA,40.5365,-80.1845
17131,Millville,17846-8948,PA,41.1204,-76.5299
17128,Millerton,16936,PA,41.9834,-76.9386
17126,Homestead,15120,PA,40.4059,-79.912
17125,Ebensburg,15931-1428,PA,40.4851,-78.7247
17124,Coatesville,19320-2133,PA,39.9832,-75.8238
17123,Bethlehem,18017-8748,PA,40.6179,-75.3787
17122,Whitehall,18052,PA,40.6356,-75.476
17120,Springfield,19064,PA,39.9307,-75.3202
17119,North wales,19454,PA,40.2109,-75.2782
17118,Zionsville,18092-2341,PA,40.4798,-75.5052
17117,Zelienople,16063-3215,PA,40.7958,-80.1371
17115,Youngwood,15697-1207,PA,40.2403,-79.5767
17114,York,17403,PA,39.9624,-76.7274
17111,Yardley,19067-3478,PA,40.2457,-74.846
17110,Yardley,19067,PA,40.2457,-74.846
17109,Willow grove,19090-2309,PA,40.144,-75.1157
17107,White oak,15131-2115,PA,40.3376,-79.8092
17105,Wexford,15090-7446,PA,40.6265,-80.0559
17102,West newton,15089,PA,40.2098,-79.767
17101,West chester,19382,PA,39.9597,-75.606
17100,West chester,19380-1884,PA,39.9597,-75.606
17097,West chester,19380,PA,39.9597,-75.606
17096,Weatherly,18255-1120,PA,40.9418,-75.8296
17095,Wayne,19087-2728,PA,40.044,-75.3879
17094,Warwick,18974-3819,PA,,
17092,Valley forge,19481,PA,40.0969,-75.47
17091,Upper chichester,19014-3341,PA,39.8384,-75.4405
17090,Uniontown,15401-6831,PA,39.9001,-79.7164
17088,Turtle creek,15145-1149,PA,40.4059,-79.8251
17086,Strabane,15363-9605,PA,40.2509,-80.1978
17085,Stewartstown,17363,PA,39.7537,-76.5914
17084,State college,16801-4539,PA,40.794,-77.8607
17083,Southampton,18966-4349,PA,40.1743,-75.0438
17082,Sigel,15860-3927,PA,41.2751,-79.1131
17081,Scranton,18508-1033,PA,41.4087,-75.6621
17080,Schellsburg,15559-7932,PA,40.049,-78.6442
17079,Royersford,19468,PA,40.1843,-75.538
17078,Richboro,18954-1616,PA,40.2151,-75.0107
17076,Richboro,18954-1308,PA,40.2151,-75.0107
17075,Reinholds,17569-9367,PA,40.2668,-76.1155
17073,Reading,19606-9175,PA,40.3353,-75.9279
17071,Reading,19606-1410,PA,40.3353,-75.9279
17070,Quakertown,18951-5822,PA,40.4418,-75.3416
17069,Plum,15239-2229,PA,40.5003,-79.7495
17068,Pleasant gap,16823-9629,PA,,
17065,Pittsburgh,15243-1721,PA,40.4417,-79.9901
17064,Pittsburgh,15239-2345,PA,40.4417,-79.9901
17063,Pittsburgh,15237-1436,PA,40.4417,-79.9901
17062,Pittsburgh,15217-1406,PA,40.4417,-79.9901
17061,Pittsburgh,15215,PA,40.4417,-79.9901
17060,Pittsburgh,15207-2152,PA,40.4417,-79.9901
17059,Pittsburgh,15203-1634,PA,40.4417,-79.9901
17058,Pittsburgh,15201-2860,PA,40.4417,-79.9901
17054,Phoenixville,19460-6702,PA,40.1304,-75.5149
17053,Philadelphia,19154-3002,PA,40.0115,-75.1327
17052,Philadelphia,19146-4102,PA,40.0115,-75.1327
17051,Philadelphia,19145-1925,PA,40.0115,-75.1327
17050,Philadelphia,19143-3414,PA,40.0115,-75.1327
17049,Philadelphia,19134-5311,PA,40.0115,-75.1327
17048,Philadelphia,19134-1334,PA,40.0115,-75.1327
17047,Philadelphia,19128,PA,40.0115,-75.1327
17046,Philadelphia,19123-3187,PA,40.0115,-75.1327
17045,Philadelphia,19116,PA,40.0115,-75.1327
17044,Philadelphia,19111,PA,40.0115,-75.1327
17043,Philadelphia,19106-1225,PA,40.0115,-75.1327
17042,Philadelphia,19104-6190,PA,40.0115,-75.1327
17041,Philadelphia,19104-5096,PA,40.0115,-75.1327
17040,Philadelphia,19104-3287,PA,40.0115,-75.1327
17038,Philadelphia,19103-6591,PA,40.0115,-75.1327
17037,Philadelphia,19103-4324,PA,40.0115,-75.1327
17035,Philadelphia,19102-1733,PA,40.0115,-75.1327
17034,Phila,19129-1014,PA,,
17033,Phila,19104-1863,PA,,
17031,Phila,19103-5778,PA,,
17030,Perkiomenville,18074-9709,PA,40.3243,-75.478
17029,Perkasie,18944-1353,PA,40.372,-75.2927
17027,Pennsburg,18073-1554,PA,40.3909,-75.4921
17026,Palmerton,18071-1915,PA,40.8015,-75.6102
17025,Oakdale,15071-3749,PA,40.3981,-80.1856
17024,Northampton,18067,PA,40.6872,-75.4897
17022,Norristown,19401-3319,PA,40.1215,-75.3399
17019,Newtown,18940-4203,PA,40.2296,-74.9404
17018,New cumberland,17070-3157,PA,40.2323,-76.8847
17017,New castle,16105-4915,PA,41.0037,-80.347
17015,New castle,16105-2729,PA,41.0037,-80.347
17014,Mount joy,17552-9018,PA,40.1099,-76.5033
17011,Morton,19070,PA,39.9098,-75.3235
17010,Moon township,15108-2775,PA,,
17007,Mohnton,19540-8341,PA,40.2859,-75.9844
17006,Milton,17847-8225,PA,41.0177,-76.8531
17004,Middletown,17057-5962,PA,40.1998,-76.7311
17002,Mechanicsburg,17050-7947,PA,40.2102,-77.0047
17001,Mechanicsburg,17050,PA,40.2102,-77.0047
16999,Mckeesport,15135-3012,PA,40.3478,-79.8642
16998,Masontown,15461-1727,PA,39.8467,-79.8998
16997,Manheim,17545-9709,PA,40.1637,-76.3952
16996,Manheim,17545-8106,PA,40.1637,-76.3952
16995,Malvern,19355-3504,PA,40.0362,-75.5139
16992,Madison township,18444-6613,PA,,
16990,Lower gwynedd,19002-2066,PA,40.2,-75.23
16989,Lower gwynedd,19002-2037,PA,40.2,-75.23
16988,Lock haven,17745-8709,PA,41.137,-77.4469
16987,Littlestown,17340-9525,PA,39.7445,-77.088
16986,Lititz,17543-9792,PA,40.1571,-76.3072
16985,Lititz,17543-9354,PA,40.1571,-76.3072
16984,Lititz,17543-7672,PA,40.1571,-76.3072
16983,Levittown,19055-1713,PA,40.1551,-74.8288
16982,Levittown,19054,PA,40.1551,-74.8288
16980,Lebanon,17042-6444,PA,40.3465,-76.4284
16979,Landisburg,17040-9341,PA,40.3426,-77.3072
16978,Lancaster,17601-5307,PA,40.0381,-76.3057
16976,Kutztown,19530,PA,40.5173,-75.7774
16971,Kunkletown,18058-8149,PA,40.8479,-75.4482
16969,Knoxville,16928,PA,41.9573,-77.4389
16968,King of prussia,19406-2531,PA,40.0893,-75.396
16967,Kennett square,19348-2023,PA,39.8467,-75.7116
16966,Jenkintown,19046,PA,40.0958,-75.1258
16965,Jefferson hills,15025-3437,PA,40.2912,-79.932
16963,Indiana,15701-2508,PA,40.6215,-79.1525
16961,Huntingdon valley,19006-6923,PA,40.1226,-75.0635
16960,Huntingdon valley,19006,PA,40.1226,-75.0635
16959,Hummelstown,17036-8840,PA,40.2654,-76.7083
16957,Honey brook,19344-9419,PA,40.0943,-75.9113
16956,Hazle township,18202-9644,PA,,
16955,Havertown,19083-5325,PA,39.9809,-75.3085
16954,Harrisburg,17110,PA,40.2663,-76.8861
16953,Greenville,16125,PA,41.4045,-80.3912
16952,Glenside,19038,PA,40.1023,-75.1521
16951,Glen mills,19342-3409,PA,39.9197,-75.4904
16950,Glen mills,19342-1105,PA,39.9197,-75.4904
16949,Gilbertsville,19525,PA,40.3201,-75.6102
16948,Gibsonia,15044-9793,PA,40.6301,-79.9695
16947,Frackville,17931-1824,PA,40.784,-76.2302
16945,Finleyville,15332-1511,PA,40.2523,-80.0028
16943,Felton,17322-8400,PA,39.8542,-76.565
16942,Feasterville trevose,19053-5970,PA,40.144,-75.0052
16940,Exton,19341-2785,PA,40.029,-75.6208
16938,Etters,17319-9402,PA,40.1487,-76.8192
16936,Erdenheim,19038-7855,PA,,
16934,Ephrata,17522-1668,PA,40.1799,-76.1789
16933,Emmaus,18049-2317,PA,40.5395,-75.4969
16932,Ellwood city,16117,PA,40.8617,-80.2865
16931,Elizabethtown,17022-3172,PA,40.1534,-76.6043
16930,Ebensburg,15931-4375,PA,40.4851,-78.7247
16929,Easton,18042-3510,PA,40.6916,-75.21
16928,Easton,18040-8204,PA,40.6916,-75.21
16927,Easton,18040-6687,PA,40.6916,-75.21
16926,East stroudsburg,18301-6801,PA,40.9995,-75.1813
16924,East mckeesport,15035-1502,PA,40.3831,-79.8064
16923,Dunmore,18512,PA,41.4198,-75.6324
16921,Doylestown,18901-3627,PA,40.31,-75.1305
16919,Downingtown,19335,PA,40.0065,-75.7033
16918,Denver,17517-1498,PA,40.2331,-76.1372
16917,Dallas,18612,PA,41.3362,-75.9633
16916,Croydon,19021-6909,PA,40.0873,-74.9035
16915,Conshohocken,19428-1504,PA,40.0793,-75.3016
16914,Cochranville,19330-1511,PA,39.8918,-75.9216
16913,Coatesville,19320-1198,PA,39.9832,-75.8238
16912,Carlisle,17013-3423,PA,40.2018,-77.1894
16910,Brockport,15823-1405,PA,41.2598,-78.7267
16909,Bristol,19007,PA,40.1007,-74.8518
16907,Boalsburg,16827,PA,40.7756,-77.7925
16906,Bloomsburg,17815-9574,PA,41.0041,-76.4538
16905,Bloomsburg,17815-8410,PA,41.0041,-76.4538
16904,Bethlehem,18017-4717,PA,40.6179,-75.3787
16903,Bethlehem,18017-3208,PA,40.6179,-75.3787
16902,Berwick,18603-6442,PA,41.0602,-76.2461
16900,Bensalem,19020-1801,PA,40.1046,-74.9513
16899,Bensalem,19020-1217,PA,40.1046,-74.9513
16898,Bala cynwyd,19004-3102,PA,40.0076,-75.2341
16897,Audubon,19403-5620,PA,,
16895,Altoona,16602,PA,40.5187,-78.3947
16893,Adamstown,19501,PA,40.2412,-76.0563
16892,Sandy,97055-8420,OR,45.3974,-122.2615
16891,Riddle,97469-9772,OR,42.951,-123.3642
16889,Portland,97229,OR,45.5202,-122.6742
16887,Portland,97216,OR,45.5202,-122.6742
16885,Portland,97203,OR,45.5202,-122.6742
16884,Lake oswego,97034,OR,45.4207,-122.6706
16883,Klamath falls,97603-8571,OR,42.2249,-121.7817
16882,West linn,97068-8637,OR,45.3657,-122.6123
16881,West linn,97068-8272,OR,45.3657,-122.6123
16880,Waldport,97394-3027,OR,44.4268,-124.0687
16878,Tigard,97224,OR,45.4307,-122.7719
16877,The dalles,97058-3904,OR,45.5946,-121.1787
16875,The dalles,97058-2246,OR,45.5946,-121.1787
16873,Sweet home,97386-9562,OR,44.3976,-122.7362
16872,Springfield,97477,OR,44.0462,-123.022
16871,South beach,97366-9501,OR,44.6123,-124.0487
16869,Sisters,97759-9811,OR,44.2909,-121.5493
16866,Shady cove,97539-3713,OR,42.6107,-122.8125
16863,Rogue river,97537-9615,OR,42.436,-123.172
16861,Redmond,97756-7015,OR,44.2726,-121.1739
16859,Portland,97229-4152,OR,45.5202,-122.6742
16858,Portland,97229-1547,OR,45.5202,-122.6742
16856,Portland,97225-4059,OR,45.5202,-122.6742
16855,Portland,97219-8901,OR,45.5202,-122.6742
16852,Portland,97219-3949,OR,45.5202,-122.6742
16851,Portland,97219-3506,OR,45.5202,-122.6742
16850,Portland,97212-5324,OR,45.5202,-122.6742
16849,Portland,97212,OR,45.5202,-122.6742
16848,Portland,97211,OR,45.5202,-122.6742
16847,Portland,97210-3102,OR,45.5202,-122.6742
16846,Portland,97206-9060,OR,45.5202,-122.6742
16843,Oregon city,97045-9299,OR,45.3573,-122.6068
16842,Oregon city,97045-7655,OR,45.3573,-122.6068
16841,Oregon city,97045-7088,OR,45.3573,-122.6068
16839,North plains,97133-8350,OR,45.5973,-122.9936
16838,Molalla,97038-7634,OR,45.1473,-122.577
16837,Manzanita,97130,OR,45.7184,-123.9351
16836,Lostine,97857-6481,OR,45.4874,-117.4296
16835,Lake oswego,97035-4333,OR,45.4207,-122.6706
16834,Lake oswego,97035-2541,OR,45.4207,-122.6706
16833,Lake oswego,97034,OR,45.4207,-122.6706
16832,La pine,97739-7660,OR,43.6704,-121.5036
16830,Klamath falls,97603-8016,OR,42.2249,-121.7817
16829,Klamath falls,97603,OR,42.2249,-121.7817
16828,Jacksonville,97530-9878,OR,42.3144,-122.9653
16826,Hillsboro,97124-6228,OR,45.5229,-122.9898
16825,Hillsboro,97124,OR,45.5229,-122.9898
16824,Hillsboro,97123,OR,45.5229,-122.9898
16823,Hereford,97837-8603,OR,44.4987,-118.0373
16820,Happy valley,97086,OR,45.4468,-122.5304
16818,Gresham,97080-9436,OR,45.5067,-122.4367
16817,Gresham,97080,OR,45.5067,-122.4367
16816,Gresham,97030-6345,OR,45.5067,-122.4367
16814,Florence,97439-9306,OR,43.9827,-124.0998
16813,Eugene,97402-1154,OR,44.0505,-123.0951
16812,Eugene,97402,OR,44.0505,-123.0951
16811,Corvallis,97330-3679,OR,44.5646,-123.262
16810,Coos bay,97420,OR,43.3665,-124.2179
16809,Clackamas,97015-7336,OR,45.4104,-122.5661
16808,Bend,97702-1286,OR,44.0582,-121.3153
16807,Bend,97702,OR,44.0582,-121.3153
16806,Bend,97701-7634,OR,44.0582,-121.3153
16805,Bend,97701-7605,OR,44.0582,-121.3153
16804,Bend,97701,OR,44.0582,-121.3153
16803,Beaverton,97008-5986,OR,45.4872,-122.8038
16801,Beaverton,97007-5870,OR,45.4872,-122.8038
16800,Beaverton,97007-5349,OR,45.4872,-122.8038
16796,Beaverton,97006,OR,45.4872,-122.8038
16795,Bandon,97411-7233,OR,43.1189,-124.4083
16794,Astoria,97103-3619,OR,46.1879,-123.8313
16793,Ashland,97520-9783,OR,42.1972,-122.7154
16792,Ashland,97520-1107,OR,42.1972,-122.7154
16791,Alsea,97324-9717,OR,44.3815,-123.5965
16790,Tulsa,74112-7119,OK,36.1012,-95.9251
16789,Oklahoma city,73170-4710,OK,35.473,-97.5171
16788,Oklahoma city,73162,OK,35.473,-97.5171
16784,Oklahoma city,73135,OK,35.473,-97.5171
16782,Edmond,73012-9562,OK,35.6571,-97.4649
16781,Bixby,74008,OK,35.942,-95.8833
16780,Tulsa,74136-2636,OK,36.1012,-95.9251
16779,Tulsa,74132-2858,OK,36.1012,-95.9251
16778,Tulsa,74127-2510,OK,36.1012,-95.9251
16777,Tulsa,74112-4136,OK,36.1012,-95.9251
16776,Tulsa,74103,OK,36.1012,-95.9251
16775,Tinker afb,73145-9142,OK,35.43,-97.42
16774,Tahlequah,74464,OK,35.9154,-94.97
16773,Oklahoma city,73139,OK,35.473,-97.5171
16771,Oklahoma city,73120-7425,OK,35.473,-97.5171
16770,Oklahoma city,73102-5636,OK,35.473,-97.5171
16769,Ochelata,74051-2136,OK,36.6001,-95.9797
16768,Norman,73071-5037,OK,35.2226,-97.4395
16767,Mutual,73853,OK,36.2314,-99.1682
16766,Mustang,73064,OK,35.3842,-97.7245
16765,Moore,73170-7474,OK,35.3395,-97.4867
16764,Marlow,73055,OK,34.6481,-97.9581
16763,Madill,73446,OK,34.0904,-96.7717
16762,Lawton,73505-6401,OK,34.6087,-98.3903
16761,Kremlin,73753-0199,OK,36.5473,-97.8314
16759,Heavener,74937-7459,OK,34.8893,-94.6008
16758,Fort gibson,74434-8703,OK,35.7976,-95.2505
16757,Edmond,73034-6520,OK,35.6571,-97.4649
16756,Edmond,73034,OK,35.6571,-97.4649
16755,Edmond,73013-2020,OK,35.6571,-97.4649
16754,Edmond,73012-6607,OK,35.6571,-97.4649
16753,Edmond,73012-4051,OK,35.6571,-97.4649
16752,Edmond,73012,OK,35.6571,-97.4649
16751,Broken arrow,74014-2331,OK,36.0526,-95.7908
16750,Broken arrow,74012-8465,OK,36.0526,-95.7908
16748,Broken arrow,74011-4283,OK,36.0526,-95.7908
16747,Bluejacket,74333,OK,36.7998,-95.0711
16746,Bethany,73008-5307,OK,35.5187,-97.6323
16745,Xenia,45385,OH,39.6848,-83.9297
16744,Wyoming,45215,OH,39.2312,-84.4658
16743,Wickliffe,44092-2429,OH,41.6053,-81.4534
16742,West chester,45069,OH,39.3303,-84.4083
16739,Sheffield village,44054-2452,OH,,
16738,Seaman,45679-9726,OH,38.942,-83.5724
16737,Maple heights,44137,OH,41.4153,-81.566
16735,Lima,45804,OH,40.7426,-84.1052
16734,Kettering,45440-2713,OH,39.6895,-84.1688
16732,Huber heights,45424-3404,OH,39.8439,-84.1247
16730,Haskins,43525-9527,OH,41.4648,-83.706
16729,Garfield hts,44125,OH,,
16728,Delta,43515-1315,OH,41.5726,-84.0059
16727,Dayton,45459-1541,OH,39.7589,-84.1916
16726,Dayton,45420,OH,39.7589,-84.1916
16725,Columbus,43213-2852,OH,39.9623,-83.0007
16723,Cleves,45002,OH,39.1623,-84.7492
16722,Cleveland,44143-3027,OH,41.5052,-81.6934
16721,Cleveland,44114-4340,OH,41.5052,-81.6934
16720,Cincinnati,45248,OH,39.1015,-84.5125
16719,Cincinnati,45240,OH,39.1015,-84.5125
16718,Cincinnati,45227,OH,39.1015,-84.5125
16717,Chesterland,44026,OH,41.5223,-81.3379
16716,Carrollton,44615,OH,40.5728,-81.0857
16715,Athens,45701,OH,39.3292,-82.1013
16714,Ashville,43103,OH,39.7156,-82.953
16713,Zanesville,43701-1523,OH,39.9403,-82.0132
16712,Wooster,44691-8004,OH,40.8051,-81.9351
16711,Wooster,44691-4429,OH,40.8051,-81.9351
16710,Willoughby,44094-5325,OH,41.6398,-81.4065
16709,Westerville,43081-7570,OH,40.1262,-82.9291
16708,Westerville,43081-4307,OH,40.1262,-82.9291
16706,Waterford,45786-5438,OH,39.5423,-81.6399
16705,Wapakoneta,45895-9118,OH,40.5678,-84.1936
16701,Valley city,44280-9532,OH,41.2378,-81.9315
16700,Uniontown,44685,OH,40.9759,-81.4073
16698,Twinsburg,44087-1611,OH,41.3126,-81.4401
16697,Toledo,43623,OH,41.6787,-83.5127
16696,Toledo,43612-2548,OH,41.6787,-83.5127
16693,Sylvania,43560,OH,41.7189,-83.713
16692,Springdale,45246-1510,OH,39.287,-84.4852
16690,Sheffield village,44054-2948,OH,,
16689,Sheffield lake,44054-1231,OH,41.4875,-82.1015
16688,Rock creek,44084-9352,OH,41.6603,-80.8606
16686,Powell,43065-6032,OH,40.1578,-83.0752
16685,Port clinton,43452-9067,OH,41.512,-82.9377
16684,Perrysburg,43551,OH,41.557,-83.6272
16682,Orrville,44667,OH,40.8437,-81.764
16681,Northwood,43619-1815,OH,41.6073,-83.4688
16680,Northfield,44067-3282,OH,41.3451,-81.5285
16679,Newcomerstown,43832-9128,OH,40.2723,-81.606
16678,Newark,43055-8633,OH,40.0581,-82.4013
16676,New washington,44854,OH,40.9623,-82.8544
16674,New philadelphia,44663-3558,OH,40.4898,-81.4457
16672,New albany,43054-8917,OH,40.0812,-82.8088
16671,Nevada,44849-9625,OH,40.8192,-83.1305
16670,Monroe,45050-1564,OH,39.4403,-84.3622
16669,Mogadore,44260-1375,OH,41.0508,-81.3939
16668,Middletown,45044-8746,OH,39.5151,-84.3983
16667,Middleburg heights,44130-4902,OH,41.3614,-81.8129
16666,Miamisburg,45342-1183,OH,39.6428,-84.2866
16665,Medina,44256,OH,41.1384,-81.8637
16660,Mayfield hts,44124-3133,OH,,
16659,Maumee,43537,OH,41.5628,-83.6538
16658,Massillon,44647-6442,OH,40.7967,-81.5215
16657,Massillon,44646,OH,40.7967,-81.5215
16656,Marysville,43040,OH,40.2364,-83.3671
16655,Marion,43302-4202,OH,40.5887,-83.1285
16654,Maineville,45039,OH,39.3151,-84.2209
16653,Little hocking,45742-5303,OH,39.2606,-81.6999
16652,Lima,45805-1102,OH,40.7426,-84.1052
16650,Lagrange,44050-9736,OH,41.2373,-82.1199
16648,Howard,43028,OH,40.4076,-82.3268
16647,Hicksville,43526,OH,41.2931,-84.7619
16644,Hartville,44632-9488,OH,40.9637,-81.3312
16643,Grove city,43123-1191,OH,39.8815,-83.093
16642,Gahanna,43230,OH,40.0195,-82.8791
16641,Fort recovery,45846-9742,OH,40.4128,-84.7764
16639,Findlay,45840-2917,OH,41.0414,-83.6504
16638,Fairborn,45324-6306,OH,39.8209,-84.0194
16637,Dayton,45459-1516,OH,39.7589,-84.1916
16634,Dayton,45406-4020,OH,39.7589,-84.1916
16633,Cortland,44410-8610,OH,41.3303,-80.7254
16629,Columbus,43235,OH,39.9623,-83.0007
16628,Columbus,43229-3655,OH,39.9623,-83.0007
16627,Columbus,43221,OH,39.9623,-83.0007
16626,Columbus,43220-5059,OH,39.9623,-83.0007
16625,Columbus,43212-3326,OH,39.9623,-83.0007
16624,Columbus,43212,OH,39.9623,-83.0007
16623,Columbus,43211-2278,OH,39.9623,-83.0007
16621,Columbus,43204-4962,OH,39.9623,-83.0007
16620,Columbus,43204-2323,OH,39.9623,-83.0007
16619,Columbus,43202-3056,OH,39.9623,-83.0007
16618,Columbus,43202,OH,39.9623,-83.0007
16617,Columbus,43201-2305,OH,39.9623,-83.0007
16616,Clinton,44216-9369,OH,40.9267,-81.6304
16614,Cleveland heights,44106-2778,OH,41.5201,-81.5562
16613,Cleveland,44119-1347,OH,41.5052,-81.6934
16612,Cincinnati,45251-4636,OH,39.1015,-84.5125
16611,Cincinnati,45248-1339,OH,39.1015,-84.5125
16610,Cincinnati,45245-1112,OH,39.1015,-84.5125
16609,Cincinnati,45244-3873,OH,39.1015,-84.5125
16607,Cincinnati,45244-3845,OH,39.1015,-84.5125
16603,Cincinnati,45241-3276,OH,39.1015,-84.5125
16602,Cincinnati,45230-2501,OH,39.1015,-84.5125
16601,Cincinnati,45216-1404,OH,39.1015,-84.5125
16600,Cincinnati,45202-3528,OH,39.1015,-84.5125
16598,Centerville,45459-7108,OH,,
16597,Canal fulton,44614-8489,OH,40.8898,-81.5976
16596,Brooklyn,44144,OH,41.4398,-81.7406
16595,Broadview hts,44147,OH,,
16594,Broadview heights,44147-3634,OH,41.3139,-81.6851
16593,Broadview heights,44147-2985,OH,41.3139,-81.6851
16592,Brilliant,43913-1047,OH,40.2648,-80.6262
16591,Blacklick,43004-9771,OH,39.9956,-82.8113
16589,Barberton,44203-3729,OH,41.0128,-81.6051
16587,Amherst,44001-2550,OH,41.3978,-82.2224
16586,Alliance,44601-1284,OH,40.9153,-81.1059
16584,Akron,44320-1222,OH,41.0831,-81.5185
16583,Akron,44314-2870,OH,41.0831,-81.5185
16582,Akron,44313-5304,OH,41.0831,-81.5185
16581,Ada,45810-1646,OH,40.7695,-83.8227
16579,Yorktown heights,10598-3220,NY,41.2709,-73.7776
16574,Yonkers,10710-4751,NY,40.9312,-73.8987
16573,Yonkers,10710-3523,NY,40.9312,-73.8987
16572,Yonkers,10710-2736,NY,40.9312,-73.8987
16571,Yonkers,10703-1923,NY,40.9312,-73.8987
16570,Wynantskill,12198-8213,NY,42.6967,-73.6443
16569,Woodside,11377-3084,NY,40.7454,-73.9054
16567,White plains,10605-4607,NY,41.034,-73.7629
16566,Westhampton beach,11978-2413,NY,40.8102,-72.643
16565,West harrison,10604-1903,NY,41.0448,-73.7442
16563,West babylon,11704,NY,40.7182,-73.3543
16561,Wellesley island,13640-9998,NY,44.32,-75.95
16560,Webster,14580-9310,NY,43.2123,-77.43
16558,Webster,14580-1479,NY,43.2123,-77.43
16557,Waverly,14892-1421,NY,42.0104,-76.5272
16556,Walden,12586-2102,NY,41.5612,-74.1885
16555,Wading river,11792-3103,NY,40.9504,-72.8426
16554,Valley stream,11580,NY,40.6643,-73.7085
16553,Valley cottage,10989,NY,41.1182,-73.9554
16552,Troy,12180-5425,NY,42.7284,-73.6918
16551,Troy,12180-5294,NY,42.7284,-73.6918
16550,Troy,12180,NY,42.7284,-73.6918
16549,Tonawanda,14150-4616,NY,43.0207,-78.8784
16546,Syracuse,13209-1402,NY,43.0481,-76.1474
16545,Syosset,11791-4203,NY,40.8262,-73.5021
16542,Stony point,10980-3318,NY,41.2295,-73.9871
16539,Staten island,10314-3324,NY,40.6428,-74.0749
16536,Staten island,10314-3106,NY,40.6428,-74.0749
16535,Staten island,10312-3605,NY,40.6428,-74.0749
16533,Staten island,10309-2121,NY,40.6428,-74.0749
16532,Staten island,10309-1601,NY,40.6428,-74.0749
16531,Staten island,10304-5400,NY,40.6428,-74.0749
16529,Staten island,10304-4143,NY,40.6428,-74.0749
16528,Staten island,10301-3417,NY,40.6428,-74.0749
16527,Springfield gardens,11413-4058,NY,40.6782,-73.7465
16526,South hempstead,11550-7703,NY,,
16525,Somers,10589,NY,41.3281,-73.6857
16523,Sodus,14551-9643,NY,43.2378,-77.0614
16520,Silver creek,14136,NY,42.5442,-79.1667
16519,Shokan,12481-5709,NY,41.9734,-74.2121
16518,Seaford,11783-3451,NY,40.6659,-73.4882
16517,Schenectady,12303,NY,42.8142,-73.9396
16516,Saugerties,12477-4744,NY,42.0776,-73.9529
16515,Saratoga springs,12866-9170,NY,43.0822,-73.7854
16513,Saratoga springs,12866-1307,NY,43.0822,-73.7854
16511,Saint albans,11412-3211,NY,40.6984,-73.7607
16510,Rouses point,12979,NY,44.9939,-73.3649
16509,Roslyn heights,11577-1625,NY,40.7887,-73.6474
16506,Ronkonkoma,11779-7353,NY,40.8154,-73.1123
16505,Ronkonkoma,11779-3064,NY,40.8154,-73.1123
16504,Rome,13440,NY,43.2128,-75.4557
16503,Rockville centre,11570,NY,40.6587,-73.6412
16500,Rochester,14627-0001,NY,43.1573,-77.6152
16499,Rochester,14622-1113,NY,43.1573,-77.6152
16498,Rochester,14620-2417,NY,43.1573,-77.6152
16497,Rochester,14620-2129,NY,43.1573,-77.6152
16496,Rochester,14620-2122,NY,43.1573,-77.6152
16495,Rochester,14617-4232,NY,43.1573,-77.6152
16494,Rochester,14616-4428,NY,43.1573,-77.6152
16493,Rochester,14609-5645,NY,43.1573,-77.6152
16491,Ridgewood,11385-3504,NY,40.7081,-73.9142
16488,Ridgewood,11385,NY,40.7081,-73.9142
16485,Richmond hill,11418,NY,40.6994,-73.831
16484,Rhinebeck,12572,NY,41.9269,-73.9127
16483,Rensselaer,12144-1727,NY,42.6426,-73.7429
16482,Rego park,11374-1226,NY,40.73,-73.87
16480,Red hook,12571-1110,NY,41.9951,-73.8756
16479,Prattsburgh,14873,NY,42.524,-77.2889
16478,Port washington,11050,NY,40.8257,-73.6982
16477,Port chester,10573-2711,NY,41.0018,-73.6657
16475,Pittsford,14534-3119,NY,43.091,-77.5153
16474,Pawling,12564-3423,NY,41.562,-73.6026
16473,Ossining,10562-5704,NY,41.1629,-73.8615
16471,Ossining,10562-3903,NY,41.1629,-73.8615
16470,Ossining,10562,NY,41.1629,-73.8615
16469,Olean,14760-1615,NY,42.0776,-78.4297
16468,Old bethpage,11804,NY,40.7626,-73.4532
16466,Oceanside,11572,NY,40.6387,-73.6401
16464,Oakdale,11769-1901,NY,40.744,-73.1387
16463,Norwich,13815-1242,NY,42.5312,-75.5235
16462,Northport,11768-2313,NY,40.9009,-73.3432
16461,New york,10280-1026,NY,40.7648,-73.9808
16460,New york,10280,NY,40.7648,-73.9808
16458,New york,10128-4244,NY,40.7648,-73.9808
16457,New york,10128-3633,NY,40.7648,-73.9808
16456,New york,10128,NY,40.7648,-73.9808
16455,New york,10121-0898,NY,40.7648,-73.9808
16454,New york,10112,NY,40.7648,-73.9808
16451,New york,10075-0691,NY,40.7648,-73.9808
16450,New york,10069-0510,NY,40.7648,-73.9808
16449,New york,10065-7510,NY,40.7648,-73.9808
16448,New york,10044-0242,NY,40.7648,-73.9808
16447,New york,10035-2720,NY,40.7648,-73.9808
16446,New york,10033-5339,NY,40.7648,-73.9808
16445,New york,10033-5002,NY,40.7648,-73.9808
16444,New york,10033-3433,NY,40.7648,-73.9808
16442,New york,10033-1755,NY,40.7648,-73.9808
16441,New york,10032-7916,NY,40.7648,-73.9808
16440,New york,10032-1234,NY,40.7648,-73.9808
16438,New york,10032,NY,40.7648,-73.9808
16434,New york,10029-6917,NY,40.7648,-73.9808
16433,New york,10028-0139,NY,40.7648,-73.9808
16432,New york,10028,NY,40.7648,-73.9808
16431,New york,10027-3941,NY,40.7648,-73.9808
16430,New york,10025,NY,40.7648,-73.9808
16429,New york,10024-6605,NY,40.7648,-73.9808
16428,New york,10024-6050,NY,40.7648,-73.9808
16427,New york,10024-3850,NY,40.7648,-73.9808
16426,New york,10024-3720,NY,40.7648,-73.9808
16425,New york,10024-3719,NY,40.7648,-73.9808
16424,New york,10024-3407,NY,40.7648,-73.9808
16423,New york,10024-2605,NY,40.7648,-73.9808
16422,New york,10024-1242,NY,40.7648,-73.9808
16419,New york,10024,NY,40.7648,-73.9808
16418,New york,10023-7133,NY,40.7648,-73.9808
16416,New york,10023-6902,NY,40.7648,-73.9808
16415,New york,10023-1549,NY,40.7648,-73.9808
16414,New york,10023,NY,40.7648,-73.9808
16413,New york,10022,NY,40.7648,-73.9808
16412,New york,10021-3138,NY,40.7648,-73.9808
16411,New york,10017-6836,NY,40.7648,-73.9808
16409,New york,10016-8012,NY,40.7648,-73.9808
16407,New york,10016-3842,NY,40.7648,-73.9808
16406,New york,10011-5414,NY,40.7648,-73.9808
16405,New york,10011-1435,NY,40.7648,-73.9808
16404,New york,10011,NY,40.7648,-73.9808
16403,New york,10009-6921,NY,40.7648,-73.9808
16402,New york,10002-3927,NY,40.7648,-73.9808
16401,New york,10002-1592,NY,40.7648,-73.9808
16400,New york,10001-4246,NY,40.7648,-73.9808
16399,New windsor,12553-2100,NY,41.4768,-74.0238
16398,New rochelle,10804-4406,NY,40.9115,-73.7826
16395,New rochelle,10804,NY,40.9115,-73.7826
16394,New rochelle,10801,NY,40.9115,-73.7826
16393,New city,10956-1433,NY,41.147,-73.9903
16392,Montgomery,12549,NY,41.5276,-74.2368
16389,Mineola,11501-1102,NY,40.7493,-73.6407
16387,Merrick,11566-5134,NY,40.6629,-73.5515
16386,Medina,14103-1846,NY,43.2201,-78.387
16385,Manlius,13104-1502,NY,43.002,-75.9769
16384,Manhasset,11030-2503,NY,40.7979,-73.6996
16383,Loudonville,12211-2203,NY,,
16380,Long island city,11109,NY,40.7455,-73.9485
16379,Long island city,11102,NY,40.7455,-73.9485
16378,Long beach,11561-4304,NY,40.5885,-73.6579
16377,Long beach,11561-4059,NY,40.5885,-73.6579
16376,Littleneck,11362,NY,40.762,-73.7382
16374,Lindenhurst,11757-5025,NY,40.6868,-73.3735
16372,Lake george,12845,NY,43.426,-73.7122
16370,Kew gardens,11415-1150,NY,40.7139,-73.8307
16369,Keeseville,12944,NY,44.505,-73.4801
16368,Jericho,11753-1451,NY,40.792,-73.5398
16367,Jamesville,13078-9588,NY,42.992,-76.0716
16366,Jamaica ny,11434,NY,,
16365,Jamaica,11434,NY,40.6915,-73.8057
16364,Jackson heights,11372-5984,NY,40.75,-73.89
16363,Jackson heights,11372-1670,NY,40.75,-73.89
16362,Ithaca,14850,NY,42.4396,-76.4968
16361,Huntington station,11746-3117,NY,40.8534,-73.4115
16360,Huntington station,11746-2815,NY,40.8534,-73.4115
16359,Huntington,11743,NY,40.8682,-73.4257
16358,Holbrook,11741-1117,NY,40.8123,-73.0784
16357,Highland mills,10930-5100,NY,41.347,-74.1263
16356,Hicksville,11801-3237,NY,40.7684,-73.5251
16354,Hicksville,11801,NY,40.7684,-73.5251
16353,Hempstead,11550-3521,NY,40.7063,-73.6187
16352,Hartsdale,10530-2526,NY,41.019,-73.7982
16351,Harrison,10528-1706,NY,40.969,-73.7126
16350,Hampton bays,11946-3217,NY,40.869,-72.5176
16349,Hamilton,13346,NY,42.8269,-75.5444
16348,Greenlawn,11740-3006,NY,40.869,-73.3651
16347,Great neck,11024-1543,NY,40.8007,-73.7285
16345,Great neck,11021-3642,NY,40.8007,-73.7285
16344,Great neck,11021-1441,NY,40.8007,-73.7285
16343,Glens falls,12801-2653,NY,43.3097,-73.6441
16342,Glendale,11385-6600,NY,,
16341,Gardens,11413,NY,,
16340,Freeville,13068-9715,NY,42.5131,-76.347
16339,Forest hills,11375-6726,NY,40.7227,-73.8479
16338,Forest hills,11375-3167,NY,40.7227,-73.8479
16337,Forest hills,11375,NY,40.7227,-73.8479
16333,Flushing,11367-3122,NY,40.7654,-73.8174
16332,Flushing,11355-2214,NY,40.7654,-73.8174
16330,Farmingdale,11735-6808,NY,40.7326,-73.4454
16327,Far rockaway,11691-5812,NY,40.59,-73.8
16326,Far rockaway,11691-1724,NY,40.59,-73.8
16325,Fairport,14450,NY,43.0993,-77.443
16324,Elmont,11003-3409,NY,40.7009,-73.7129
16323,Elmhurst,11373-7401,NY,40.7366,-73.8784
16322,Elmhurst,11373-3811,NY,40.7366,-73.8784
16321,East islip,11730-2106,NY,40.732,-73.1857
16320,East amherst,14051,NY,43.0184,-78.6967
16319,Corona,11368-3642,NY,40.747,-73.8601
16318,Corning,14830-3111,NY,42.1429,-77.0547
16317,Copiague,11726-3325,NY,40.6841,-73.4008
16316,Colden,14033-9631,NY,42.6442,-78.6847
16315,Clinton,13323,NY,43.0484,-75.3785
16313,Clifton springs,14432-9734,NY,42.9617,-77.14
16311,Cicero,13039-9394,NY,43.179,-76.0407
16309,Chestertown,12817,NY,43.6526,-73.801
16308,Cheektowaga,14227-2665,NY,42.9034,-78.7548
16306,Chappaqua,10514-2738,NY,41.1595,-73.7649
16305,Canandaigua,14424-1605,NY,42.8845,-77.2784
16303,Buffalo,14221-3113,NY,42.9333,-78.877
16302,Brooklyn,11238-4635,NY,40.6922,-73.9902
16298,Brooklyn,11238-2533,NY,40.6922,-73.9902
16297,Brooklyn,11236-5413,NY,40.6922,-73.9902
16295,Brooklyn,11235-4528,NY,40.6922,-73.9902
16293,Brooklyn,11235-4404,NY,40.6922,-73.9902
16292,Brooklyn,11235-2668,NY,40.6922,-73.9902
16287,Brooklyn,11234-5409,NY,40.6922,-73.9902
16284,Brooklyn,11234-3130,NY,40.6922,-73.9902
16283,Brooklyn,11230-7600,NY,40.6922,-73.9902
16282,Brooklyn,11230-7343,NY,40.6922,-73.9902
16281,Brooklyn,11230,NY,40.6922,-73.9902
16279,Brooklyn,11229-2747,NY,40.6922,-73.9902
16278,Brooklyn,11229-2629,NY,40.6922,-73.9902
16276,Brooklyn,11226-6518,NY,40.6922,-73.9902
16275,Brooklyn,11226-6109,NY,40.6922,-73.9902
16274,Brooklyn,11226-1152,NY,40.6922,-73.9902
16272,Brooklyn,11222-1517,NY,40.6922,-73.9902
16271,Brooklyn,11222,NY,40.6922,-73.9902
16270,Brooklyn,11221,NY,40.6922,-73.9902
16268,Brooklyn,11220,NY,40.6922,-73.9902
16266,Brooklyn,11219-4102,NY,40.6922,-73.9902
16265,Brooklyn,11216-4220,NY,40.6922,-73.9902
16262,Brooklyn,11216-2809,NY,40.6922,-73.9902
16261,Brooklyn,11216-1113,NY,40.6922,-73.9902
16260,Brooklyn,11215,NY,40.6922,-73.9902
16258,Brooklyn,11214,NY,40.6922,-73.9902
16257,Brooklyn,11211-4009,NY,40.6922,-73.9902
16256,Brooklyn,11210-4231,NY,40.6922,-73.9902
16255,Brooklyn,11205-3075,NY,40.6922,-73.9902
16253,Brooklyn,11204-2346,NY,40.6922,-73.9902
16252,Brooklyn,11204-2255,NY,40.6922,-73.9902
16250,Brooklyn,11204,NY,40.6922,-73.9902
16249,Bronx,10473,NY,40.8262,-73.9231
16248,Bronx,10471-1505,NY,40.8262,-73.9231
16247,Bronx,10469-4204,NY,40.8262,-73.9231
16245,Bronx,10460,NY,40.8262,-73.9231
16244,Bronx,10456-5747,NY,40.8262,-73.9231
16243,Bronx,10451-6129,NY,40.8262,-73.9231
16242,Brockport,14420-3015,NY,43.2137,-77.9392
16241,Bellmore,11710-4604,NY,40.6687,-73.5271
16240,Bayside,11361-3606,NY,40.7684,-73.7771
16239,Bayside,11361-3525,NY,40.7684,-73.7771
16236,Bayside,11361-2214,NY,40.7684,-73.7771
16235,Bayshore,11706,NY,40.7251,-73.2454
16233,Ballston spa,12020,NY,43.0009,-73.849
16232,Ballston lake,12019-9338,NY,42.9117,-73.8682
16230,Baldwinsville,13027,NY,43.1587,-76.3327
16229,Babylon,11702-1008,NY,40.6957,-73.3257
16227,Astoria,11105-2916,NY,40.75,-73.94
16226,Amsterdam,12010-6287,NY,42.9434,-74.185
16225,Amityville,11701-4103,NY,40.679,-73.4171
16224,Amherst,14228-3327,NY,42.9784,-78.7998
16222,Altamont,12009-3814,NY,42.7006,-74.0337
16221,Alexander,14005-9624,NY,42.9012,-78.2567
16218,Alden,14004-9493,NY,42.9001,-78.492
16217,Albany,12208-1051,NY,42.6512,-73.755
16216,Albany,12208,NY,42.6512,-73.755
16215,Albany,12205-4405,NY,42.6512,-73.755
16214,Albany,12205,NY,42.6512,-73.755
16213,Addison,14801-9284,NY,42.1052,-77.2341
16212,Yerington,89447,NV,38.9939,-119.1632
16211,Reno,89523-9081,NV,39.5293,-119.8137
16210,Reno,89521-8364,NV,39.5293,-119.8137
16209,Reno,89521-6348,NV,39.5293,-119.8137
16208,Reno,89512-4712,NV,39.5293,-119.8137
16207,Reno,89509-3502,NV,39.5293,-119.8137
16206,Reno,89509-3216,NV,39.5293,-119.8137
16205,Reno,89509,NV,39.5293,-119.8137
16204,Reno,89506,NV,39.5293,-119.8137
16203,Pahrump,89048,NV,36.2083,-115.9839
16202,North las vegas,89085,NV,36.2008,-115.1121
16201,North las vegas,89084,NV,36.2008,-115.1121
16200,Mesquite,89027-8801,NV,36.804,-114.0681
16198,Las vegas,89178,NV,36.1663,-115.1492
16193,Las vegas,89170,NV,36.1663,-115.1492
16191,Las vegas,89169-0319,NV,36.1663,-115.1492
16190,Las vegas,89147-4148,NV,36.1663,-115.1492
16189,Las vegas,89139-7481,NV,36.1663,-115.1492
16188,Las vegas,89135-3266,NV,36.1663,-115.1492
16187,Las vegas,89135-1650,NV,36.1663,-115.1492
16186,Las vegas,89123-1703,NV,36.1663,-115.1492
16185,Las vegas,89121-5786,NV,36.1663,-115.1492
16184,Las vegas,89121-4132,NV,36.1663,-115.1492
16183,Las vegas,89108-3350,NV,36.1663,-115.1492
16182,Las vegas,89103-4201,NV,36.1663,-115.1492
16181,Las vegas,89102-2032,NV,36.1663,-115.1492
16180,Henderson,89044-0499,NV,36.0391,-114.9819
16179,Henderson,89015,NV,36.0391,-114.9819
16178,Gardnerville,89410-5606,NV,38.9413,-119.7496
16177,Dayton,89403-6358,NV,39.2371,-119.593
16175,Dayton,89403-3017,NV,39.2371,-119.593
16174,Carson city,89701,NV,39.1638,-119.7674
16173,Boulder city,89006-1588,NV,35.9786,-114.8325
16172,Boulder city,89005-3710,NV,35.9786,-114.8325
16171,Boulder city,89005-1532,NV,35.9786,-114.8325
16170,Mt holly,28120,NC,35.2982,-81.0159
16169,Emerald isle,28594-2143,NC,34.6779,-76.9508
16168,Silver city,88061-4969,NM,32.7725,-108.2794
16164,Santa fe,87506-4536,NM,35.687,-105.9378
16163,Santa fe,87501-2335,NM,35.687,-105.9378
16162,Placitas,87043-9202,NM,35.307,-106.4247
16161,Pep,88126-9720,NM,,
16160,Mimbres,88049-8005,NM,,
16159,Lovington,88260-4320,NM,32.944,-103.3486
16157,Los alamos,87544-3423,NM,35.8585,-106.3172
16156,La luz,88337-9539,NM,32.9779,-105.9419
16153,Jal,88252-0219,NM,32.1132,-103.1935
16152,Hobbs,88242-0715,NM,32.7026,-103.136
16150,Hobbs,88240-2206,NM,32.7026,-103.136
16149,Farmington,87401-9285,NM,36.7304,-108.2089
16148,Farmington,87401,NM,36.7304,-108.2089
16147,Cedar crest,87008-9718,NM,35.1075,-106.3728
16146,Albuquerque,87194-7730,NM,35.0841,-106.651
16145,Albuquerque,87120-4507,NM,35.0841,-106.651
16144,Albuquerque,87114-5327,NM,35.0841,-106.651
16143,Albuquerque,87113-1282,NM,35.0841,-106.651
16142,Albuquerque,87112-1159,NM,35.0841,-106.651
16141,Albuquerque,87111,NM,35.0841,-106.651
16140,Albuquerque,87110-4734,NM,35.0841,-106.651
16139,Albuquerque,87110,NM,35.0841,-106.651
16138,Woodstown,8098,NJ,39.6515,-75.3282
16136,Willingboro,8046,NJ,40.0279,-74.8691
16135,Wildwood,08260-3415,NJ,38.9918,-74.8149
16134,Wharton,07885-2552,NJ,40.8932,-74.5818
16133,Westwood,07675-2501,NJ,40.9912,-74.0326
16131,West orange,7052,NJ,40.7987,-74.239
16128,West milford,7480,NJ,41.1312,-74.3674
16127,Wenonah,08090-1319,NJ,39.7946,-75.1488
16126,Union,07083-8090,NJ,40.6976,-74.2632
16125,Trenton,08638-3349,NJ,40.2171,-74.7429
16124,Trenton,08620-9413,NJ,40.2171,-74.7429
16123,Trenton,08619-3926,NJ,40.2171,-74.7429
16122,Toms river,08757-5541,NJ,39.9537,-74.198
16121,Toms river,08757-2731,NJ,39.9537,-74.198
16120,Titusville,8560,NJ,,
16119,Teterboro,07608-1200,NJ,40.8598,-74.0593
16117,Summit,07901-1536,NJ,40.7182,-74.3592
16116,Succasunna,07876-1112,NJ,40.8684,-74.6404
16115,Stockton,08559-1504,NJ,40.4079,-74.9782
16114,Stockholm,7460,NJ,41.0895,-74.5171
16113,Stirling,07980-1223,NJ,,
16112,Stewartsville,8886,NJ,40.6937,-75.111
16110,South orange,7079,NJ,40.7475,-74.2635
16109,South amboy,8879,NJ,40.4783,-74.2907
16108,Secaucus,07094-3610,NJ,40.7899,-74.0567
16107,Secaucus,07094-1711,NJ,40.7899,-74.0567
16106,Scotch plains,07076-4664,NJ,40.6554,-74.3899
16105,Sayreville,8872,NJ,40.4593,-74.361
16104,Rumson,07760-1045,NJ,40.3721,-73.999
16103,Roselle,07203-1955,NJ,40.66,-74.26
16102,Riverton,8077,NJ,40.0115,-75.0149
16101,River vale,7675,NJ,40.9954,-74.0121
16099,Ringwood,07456-1018,NJ,41.1134,-74.2454
16098,Ridgewood,07450-5414,NJ,40.9792,-74.1166
16097,Ridgewood,07450-2421,NJ,40.9792,-74.1166
16096,Red bank,07701-1704,NJ,40.3471,-74.0643
16094,Raritan,08869-1353,NJ,40.5,-74.86
16093,Princeton,8540,NJ,40.3493,-74.6593
16092,Pleasantville,08232-1060,NJ,39.3898,-74.524
16091,Pittstown,08867-5155,NJ,,
16086,Piscataway,8854,NJ,40.5463,-74.466
16085,Pennington,08534-3320,NJ,40.3284,-74.7907
16084,Pedricktown,08067-3613,NJ,39.7589,-75.406
16083,Park ridge,7656,NJ,41.0376,-74.0407
16081,Ortley beach,08751-1611,NJ,,
16080,Northfield,08225-1230,NJ,39.3704,-74.5502
16079,North plainfield,07060-4147,NJ,40.6301,-74.4274
16078,North caldwell,7006,NJ,40.8648,-74.2582
16076,North brunswick,08902-4568,NJ,40.454,-74.482
16073,North brunswick,08902-4268,NJ,40.454,-74.482
16072,North bergen,07047-6909,NJ,40.8043,-74.0121
16071,Newton,07860-6713,NJ,41.0582,-74.7527
16070,Newark,07108-1556,NJ,40.7357,-74.1724
16066,N arlington,07031-6736,NJ,,
16065,Mullica hill,8062,NJ,,
16063,Mountain lakes,07046-1108,NJ,40.8948,-74.4329
16062,Mount arlington,07856-2320,NJ,40.9259,-74.6349
16061,Morristown,7960,NJ,40.797,-74.481
16059,Morris plains,07950-3321,NJ,40.84,-74.47
16057,Morris plains,07950-2139,NJ,40.84,-74.47
16056,Montclair,07042-3828,NJ,40.8259,-74.209
16055,Millstone township,08535-8519,NJ,,
16054,Middlesex,08846-1346,NJ,40.5735,-74.494
16053,Mendham,07945-2010,NJ,40.79,-74.57
16052,Medford,08055-9285,NJ,39.9009,-74.8235
16050,Medford,8055,NJ,39.9009,-74.8235
16049,Maywood,07607-1810,NJ,40.9026,-74.0618
16048,Matawan,07747-3510,NJ,40.4148,-74.2296
16045,Martinsville,8836,NJ,,
16043,Marlton,08053-4243,NJ,39.809,-74.8982
16042,Marlboro,7746,NJ,40.3154,-74.2463
16041,Manalapan,07726-7903,NJ,40.2853,-74.3335
16040,Mahwah,07430-1361,NJ,41.0887,-74.1438
16038,Mahwah,07430-2948,NJ,41.0887,-74.1438
16037,Magnolia,8049,NJ,39.8546,-75.0391
16036,Lyndhurst,07071-2707,NJ,40.812,-74.1243
16034,Locust,07760-2328,NJ,,
16033,Lincroft,07738-1014,NJ,40.3307,-74.121
16031,Leonardo,07737-1675,NJ,40.4173,-74.0621
16030,Lebanon,08833-3100,NJ,40.6418,-74.836
16029,Lakewood,08701-4150,NJ,40.0979,-74.2176
16027,Jersey city,07310-1218,NJ,40.7282,-74.0776
16026,Jersey city,07307-1605,NJ,40.7282,-74.0776
16025,Jersey city,07306-6641,NJ,40.7282,-74.0776
16024,Jersey city,07305-5429,NJ,40.7282,-74.0776
16023,Jersey city,07302-8980,NJ,40.7282,-74.0776
16022,Iselin,08830-2440,NJ,40.5738,-74.3235
16020,Howell,7731,NJ,40.1659,-74.1912
16019,Hoboken,07030-8802,NJ,40.7433,-74.0324
16018,Hoboken,07030-6826,NJ,40.7433,-74.0324
16017,Haskell,7420,NJ,41.0284,-74.296
16016,Hamilton,8610,NJ,40.2273,-74.6532
16015,Hackensack,07601-1258,NJ,40.8859,-74.0435
16014,Guttenberg,7093,NJ,40.792,-74.0038
16013,Galloway,08205-9718,NJ,39.4879,-74.476
16012,Franklin lakes,07417-1815,NJ,41.0168,-74.2057
16011,Fort lee,07024-5419,NJ,40.8509,-73.9701
16010,Forked river,08731-1076,NJ,,
16009,Fords,8863,NJ,40.5273,-74.3099
16008,Flemington,08822-2606,NJ,40.5123,-74.8593
16007,Farmingdale,07727-4306,NJ,40.1965,-74.1685
16006,Far hills,07931-2804,NJ,40.6843,-74.6357
16005,Far hills,07931-2203,NJ,40.6843,-74.6357
16003,Fairfield,07004-1712,NJ,40.8837,-74.306
16000,Erial,08081-1064,NJ,,
15998,Englewood cliffs,07632-2401,NJ,40.8854,-73.9524
15996,Elizabeth,07208-1039,NJ,40.664,-74.2107
15994,Edison,08820-4011,NJ,40.5187,-74.4121
15993,Edison,8820,NJ,40.5187,-74.4121
15992,Eatontown,7724,NJ,40.2962,-74.051
15990,East windsor,8520,NJ,40.268,-74.5404
15988,East orange,07018-3326,NJ,40.7673,-74.2049
15987,East brunswick,08816-4441,NJ,40.4279,-74.416
15986,Dumont,07628-3508,NJ,40.9407,-73.9968
15985,Delran,08075-2654,NJ,40.0221,-74.9721
15984,Cresskill,7626,NJ,40.9415,-73.9593
15983,Cranford,7016,NJ,40.6584,-74.2996
15981,Cranbury,08512-2611,NJ,40.3162,-74.5138
15980,Columbus,8022,NJ,40.0726,-74.7207
15978,Columbia,07832-2797,NJ,,
15977,Closter,07624-2699,NJ,40.9732,-73.9615
15976,Clifton,7012,NJ,40.8584,-74.1638
15975,Clementon,08021-4154,NJ,39.8115,-74.9829
15974,Clark,07066-1361,NJ,40.6234,-74.3148
15973,Chatham,07928-1011,NJ,40.7,-74.43
15971,Camden,08105-2424,NJ,39.9448,-75.1199
15970,Califon,7830,NJ,40.7195,-74.8357
15969,Bridgeton,08302-4100,NJ,39.4273,-75.2341
15967,Bogota,07603-1209,NJ,40.8762,-74.0299
15965,Blackwood,8012,NJ,,
15963,Bergenfield,07621-4015,NJ,40.9276,-73.9974
15958,Bergenfield,07621-3413,NJ,40.9276,-73.9974
15957,Bellmawr,08031-1258,NJ,39.8676,-75.0946
15955,Bedminster,07921-2577,NJ,40.6807,-74.6454
15953,Bedminster,07921-1861,NJ,40.6807,-74.6454
15952,Beachwood,8722,NJ,39.939,-74.1929
15951,Bayonne,07002-3087,NJ,40.6687,-74.1143
15950,Basking ridge,07920-1973,NJ,40.6853,-74.5475
15949,Barnegat,08005-5588,NJ,39.7532,-74.2229
15948,Avenel,07001-1403,NJ,40.5783,-74.2802
15947,Atlantic city,08401-2025,NJ,39.3643,-74.4229
15945,Absecon,08201-1611,NJ,39.4285,-74.4957
15944,Swanzey,03446-3206,NH,42.8698,-72.2818
15942,Sugar hill,3586,NH,44.2153,-71.7995
15940,Stratham,03885-2164,NH,43.024,-70.9137
15939,Sanbornton,03269-2103,NH,43.4892,-71.5823
15938,Portsmouth,3801,NH,43.0718,-70.7626
15937,Pittsburg,03592-4161,NH,45.0512,-71.3915
15935,Nottingham,03290-5013,NH,43.1145,-71.0998
15933,Newmarket,3857,NH,43.0825,-70.9359
15932,New castle,03854-4437,NH,43.0722,-70.7167
15930,New boston,03070-4911,NH,42.9762,-71.694
15925,Nashua,03064-2549,NH,42.7654,-71.4676
15923,Mont vernon,03057-1106,NH,42.8945,-71.6742
15922,Londonderry,3053,NH,42.8651,-71.374
15921,Lincoln,03251-1193,NH,44.0456,-71.6701
15920,Lincoln,3251,NH,44.0456,-71.6701
15919,Lebanon,03766-1075,NH,43.6425,-72.2514
15918,Hollis,03049-6565,NH,42.7432,-71.5913
15917,Hampton,03842-3632,NH,42.9376,-70.8389
15916,Freedom,3836,NH,43.8123,-71.0356
15912,Epsom,03234-5005,NH,43.2229,-71.332
15910,Derry,3038,NH,42.8809,-71.3264
15909,Belmont,03220-0431,NH,43.4454,-71.4779
15907,Webster,14580-9758,NY,43.2123,-77.43
15906,Staten island,10309-3226,NY,40.6428,-74.0749
15904,Staten island,10306-5725,NY,40.6428,-74.0749
15903,Springfield gardens,11413,NY,40.6782,-73.7465
15901,Southampton,11968-2261,NY,40.8843,-72.3895
15900,South ozone park,11420,NY,40.6701,-73.819
15899,Schenectady,12306,NY,42.8142,-73.9396
15898,Scarsdale,10583-6619,NY,40.9691,-73.7635
15897,Scarsdale,10583,NY,40.9691,-73.7635
15895,Rocky point,11778-9740,NY,40.9526,-72.9254
15894,Rensselaer,12144,NY,42.6426,-73.7429
15891,Poughquag,12570-5035,NY,41.609,-73.6818
15889,Ozone park,11417-1923,NY,40.6768,-73.8437
15888,Oriskany,13424-3737,NY,43.1573,-75.3327
15886,Niskayuna,12309,NY,42.7781,-73.8539
15885,New york,10025,NY,40.7648,-73.9808
15883,New york,10024,NY,40.7648,-73.9808
15882,New york,10023-4198,NY,40.7648,-73.9808
15881,New york,10016-8289,NY,40.7648,-73.9808
15880,New york,10016,NY,40.7648,-73.9808
15877,New york,10011-6208,NY,40.7648,-73.9808
15874,New york,10009-5452,NY,40.7648,-73.9808
15872,Milford,13807-1116,NY,42.5906,-74.9452
15870,Middletown,10940,NY,41.4459,-74.4229
15869,Middle village,11379-2838,NY,40.7165,-73.8812
15867,Malverne,11565,NY,40.679,-73.674
15866,Little neck,11362-2623,NY,40.762,-73.7382
15865,Lewiston,14092-1912,NY,43.1726,-79.0359
15864,Laurelton,11413-1211,NY,,
15863,Larchmont,10538-2220,NY,40.9279,-73.7518
15862,Katonah,10536-3204,NY,41.2588,-73.6854
15861,Huntington station,11746-1668,NY,40.8534,-73.4115
15860,Fredonia,14063-9609,NY,42.4401,-79.3317
15858,Dover plains,12522-5135,NY,41.7412,-73.5765
15857,Dix hills,11746-6736,NY,40.8048,-73.3362
15856,Corning,14830-9244,NY,42.1429,-77.0547
15855,Commack,11725,NY,40.8429,-73.2929
15854,Carthage,13619-1212,NY,43.9781,-75.6094
15853,Buffalo,14216,NY,42.9333,-78.877
15852,Buffalo,14209-1208,NY,42.9333,-78.877
15850,Brooklyn,11239-1202,NY,40.6922,-73.9902
15847,Brooklyn,11234,NY,40.6922,-73.9902
15845,Brooklyn,11217-4209,NY,40.6922,-73.9902
15844,Brooklyn,11212-1347,NY,40.6922,-73.9902
15843,Brooklyn,11208-2758,NY,40.6922,-73.9902
15841,Brooklyn,11204,NY,40.6922,-73.9902
15840,Bronx,10458-6515,NY,40.8262,-73.9231
15839,Bohemia,11716,NY,40.7693,-73.1151
15838,Santa fe,87501,NM,35.687,-105.9378
15837,Ranchos de taos,87557-0471,NM,36.3586,-105.6095
15836,Las cruces,88011-4050,NM,32.314,-106.7798
15835,Las cruces,88005-8204,NM,32.314,-106.7798
15834,Albuquerque,87122-3892,NM,35.0841,-106.651
15832,Willingboro,8046,NJ,40.0279,-74.8691
15831,Villas,8251,NJ,39.0287,-74.9385
15830,Sewell,8080,NJ,,
15829,Ringoes,08551-2049,NJ,,
15827,Pennsauken,08109-1874,NJ,39.9562,-75.058
15826,Palisades park,07650-1311,NJ,40.8482,-73.9976
15825,Ocean city,8226,NJ,39.2776,-74.5746
15823,Oakland,7436,NJ,41.022,-74.2431
15822,Moorestown,08057-2676,NJ,39.9671,-74.9427
15821,Monroe township,08831-5475,NJ,,
15820,Manchester,08759-4534,NJ,39.9735,-74.3817
15819,Lodi,07644-2230,NJ,40.8823,-74.0832
15815,Hillside,07205-1115,NJ,40.7012,-74.2301
15814,Carneys point,8069,NJ,39.7112,-75.4702
15813,Caldwell,07006-5606,NJ,40.8398,-74.2765
15812,Basking ridge,7920,NJ,40.6853,-74.5475
15811,Goffstown,3045,NH,43.0204,-71.6003
15810,Derry,3038,NH,42.8809,-71.3264
15809,Sparks,89436-2525,NV,39.5348,-119.7528
15808,Omaha,68104,NE,41.2587,-95.9379
15807,Lincoln,68521,NE,40.8001,-96.6674
15806,Thedford,69166-6315,NE,41.9782,-100.5741
15805,Steinauer,68441-5149,NE,40.2078,-96.2342
15804,Ruskin,68974-7011,NE,40.1439,-97.8692
15803,Omaha,68154-2136,NE,41.2587,-95.9379
15802,Omaha,68142-1743,NE,41.2587,-95.9379
15801,Omaha,68132,NE,41.2587,-95.9379
15800,Omaha,68122-2268,NE,41.2587,-95.9379
15799,Omaha,68118-2016,NE,41.2587,-95.9379
15797,Omaha,68114-2932,NE,41.2587,-95.9379
15796,Omaha,68111-0661,NE,41.2587,-95.9379
15795,Omaha,68107,NE,41.2587,-95.9379
15793,Norfolk,68701-3363,NE,42.0283,-97.417
15791,Linwood,68036-3067,NE,41.4122,-96.9314
15790,Kearney,68845,NE,40.6995,-99.0819
15789,Holdrege,68949,NE,40.4403,-99.3698
15787,Hebron,68370,NE,40.1664,-97.5859
15786,West fargo,58078-8053,ND,46.875,-96.9004
15785,West fargo,58078-7995,ND,46.875,-96.9004
15783,Rhame,58651,ND,46.2325,-103.6555
15782,Powers lake,58773-9293,ND,48.5628,-102.648
15781,New rockford,58356,ND,47.68,-99.1379
15780,Minot,58701-7488,ND,48.2325,-101.2963
15777,Mandan,58554-4456,ND,46.8264,-100.8897
15776,Horace,58047-9700,ND,46.7589,-96.9037
15775,Hankinson,58041-9793,ND,46.0697,-96.9017
15774,Grand forks,58203-2135,ND,47.9078,-97.0592
15773,Grafton,58237-1742,ND,48.4122,-97.4106
15769,Fargo,58102-1127,ND,46.8772,-96.7898
15768,Dickinson,58601-2920,ND,46.8792,-102.7896
15766,Bismarck,58503-9299,ND,46.8083,-100.7837
15764,Bismarck,58503-0115,ND,46.8083,-100.7837
15763,Yadkinville,27055-7104,NC,36.1346,-80.6595
15762,Yadkinville,27055,NC,36.1346,-80.6595
15759,Winston salem,27106-4343,NC,36.0999,-80.2442
15758,Wilson,27896-2031,NC,35.7213,-77.9155
15757,Wilmington,28412-5142,NC,34.2257,-77.9447
15756,Wilmington,28412-3272,NC,34.2257,-77.9447
15755,Wilmington,28411-7920,NC,34.2257,-77.9447
15754,Wilmington,28409,NC,34.2257,-77.9447
15753,Wilmington,28405-6202,NC,34.2257,-77.9447
15752,Wesley chapel,28104-8900,NC,35.0071,-80.6745
15750,Waynesville,28786,NC,35.4887,-82.9889
15749,Waxhaw,28173-6992,NC,34.9246,-80.7434
15748,Waxhaw,28173-4701,NC,34.9246,-80.7434
15747,Waxhaw,28173-3300,NC,34.9246,-80.7434
15746,Wake forest,27587-5859,NC,35.9803,-78.5103
15745,Troutman,28166-8780,NC,35.7007,-80.8881
15744,Troutman,28166-8618,NC,35.7007,-80.8881
15743,Timberlake,27583,NC,36.2863,-78.9525
15740,Thomasville,27360,NC,35.8832,-80.0818
15739,Swannanoa,28778-2142,NC,35.5979,-82.3998
15738,Stokes,27884-9633,NC,35.7165,-77.2647
15737,Statesville,28677-1738,NC,35.7826,-80.8873
15734,Seven lakes,27376,NC,,
15733,Salisbury,28144-9493,NC,35.671,-80.4742
15732,Rockingham,28379-3015,NC,34.9393,-79.7739
15730,Rockingham,28379,NC,34.9393,-79.7739
15729,Reidsville,27320-9447,NC,36.3549,-79.6645
15728,Raleigh,27609-7429,NC,35.7804,-78.6391
15727,Pittsboro,27312-5301,NC,35.7202,-79.1772
15725,Pinehurst,28374-7154,NC,35.1954,-79.4695
15724,Pinebluff,28373-5525,NC,35.1099,-79.4723
15723,Pfafftown,27040-9468,NC,36.1526,-80.3623
15722,Oak ridge,27310-9741,NC,36.1735,-79.9889
15721,New bern,28562-4455,NC,35.1085,-77.0441
15720,Mooresville,28117,NC,35.5849,-80.8101
15719,Monroe,28110-9050,NC,34.9854,-80.5495
15717,Monroe,28110,NC,34.9854,-80.5495
15716,Mills river,28759,NC,35.3884,-82.5668
15714,Midland,28107,NC,35.2274,-80.5006
15713,Matthews,28105-7613,NC,35.1168,-80.7237
15712,Matthews,28105-0861,NC,35.1168,-80.7237
15709,Madison,27025-8445,NC,36.3854,-79.9595
15708,Lillington,27546-6395,NC,35.3991,-78.8156
15707,Liberty,27298-9309,NC,35.8535,-79.5717
15706,Lake toxaway,28747-8656,NC,35.1325,-82.9338
15705,Jacksonville,28546-0002,NC,34.7541,-77.4302
15704,Jacksonville,28540,NC,34.7541,-77.4302
15703,Hope mills,28348-7518,NC,34.9704,-78.9453
15701,Holly springs,27540-8524,NC,35.6513,-78.8336
15700,High point,27263-4041,NC,35.9557,-80.0053
15699,High point,27260-3729,NC,35.9557,-80.0053
15696,Hendersonville,28791,NC,35.3187,-82.461
15695,Hendersonville,28739,NC,35.3187,-82.461
15694,Hayesville,28904-4511,NC,35.0462,-83.818
15692,Hampstead,28443-2832,NC,34.3677,-77.7105
15691,Hampstead,28443,NC,34.3677,-77.7105
15690,Greensboro,27455-2180,NC,36.0726,-79.792
15689,Greensboro,27410-9124,NC,36.0726,-79.792
15687,Greensboro,27410-3820,NC,36.0726,-79.792
15683,Greensboro,27409,NC,36.0726,-79.792
15681,Greensboro,27408-3841,NC,36.0726,-79.792
15680,Gibsonville,27249-9769,NC,36.1057,-79.5422
15679,Gastonia,28054-5185,NC,35.2621,-81.1873
15678,Franklin,28734-9371,NC,35.1823,-83.3815
15677,Flat rock,28731-6500,NC,35.2712,-82.4415
15676,Fayetteville,28304,NC,35.053,-78.8787
15675,Elon,27244-9404,NC,36.1029,-79.5067
15674,Elkin,28621,NC,36.2443,-80.8484
15673,Elizabeth city,27909-8932,NC,36.2957,-76.2248
15671,Elizabeth city,27909,NC,36.2957,-76.2248
15670,Durham,27705-6908,NC,35.994,-78.8986
15669,Durham,27705-1629,NC,35.994,-78.8986
15668,Durham,27703-8517,NC,35.994,-78.8986
15667,Durham,27703-7604,NC,35.994,-78.8986
15665,Dunn,28334-3606,NC,35.3063,-78.6089
15664,Denver,28037-9153,NC,35.5312,-81.0298
15663,Denver,28037-8645,NC,35.5312,-81.0298
15661,Cramerton,28032,NC,35.2388,-81.0751
15660,Concord nc,28027,NC,,
15659,Concord,28027-2826,NC,35.4094,-80.5797
15658,Chocowinity,27817-9469,NC,35.5126,-77.1009
15657,Charlotte,28207,NC,35.2271,-80.8431
15656,Charlotte,28273-8873,NC,35.2271,-80.8431
15655,Charlotte,28273-6714,NC,35.2271,-80.8431
15654,Charlotte,28270-2846,NC,35.2271,-80.8431
15653,Charlotte,28270,NC,35.2271,-80.8431
15652,Charlotte,28269-2196,NC,35.2271,-80.8431
15651,Charlotte,28215-9768,NC,35.2271,-80.8431
15649,Charlotte,28209,NC,35.2271,-80.8431
15648,Charlotte,28203-6513,NC,35.2271,-80.8431
15646,Chapel hill,27517-9126,NC,35.9132,-79.0558
15645,Chapel hill,27517-8960,NC,35.9132,-79.0558
15644,Chapel hill,27517-6594,NC,35.9132,-79.0558
15643,Chapel hill,27516-9172,NC,35.9132,-79.0558
15641,Chapel hill,27516-8376,NC,35.9132,-79.0558
15640,Chapel hill,27516-8345,NC,35.9132,-79.0558
15639,Chapel hill,27514-1837,NC,35.9132,-79.0558
15638,Cary,27519-2848,NC,35.7883,-78.7812
15637,Cary,27519-0999,NC,35.7883,-78.7812
15636,Cary,27518-8205,NC,35.7883,-78.7812
15634,Cary,27513,NC,35.7883,-78.7812
15632,Cary,27511-3594,NC,35.7883,-78.7812
15630,Carthage,28327-5015,NC,35.3458,-79.4171
15628,Candler,28715-9446,NC,35.5365,-82.6929
15626,Burgaw,28425-3120,NC,34.5521,-77.9261
15625,Brevard,28712-9202,NC,35.2334,-82.7343
15624,Biscoe,27209-9600,NC,35.3601,-79.7797
15623,Asheville,28806-4500,NC,35.6009,-82.554
15622,Asheville,28804,NC,35.6009,-82.554
15621,Asheville,28803-8402,NC,35.6009,-82.554
15620,Asheville,28801-2959,NC,35.6009,-82.554
15619,Apex,27539,NC,35.7325,-78.8506
15618,Advance,27006-8543,NC,35.9412,-80.4092
15615,Snyder,14226,NY,,
15612,Linwood,27299,NC,35.75,-80.35
15611,Durham,27704,NC,35.994,-78.8986
15610,White sulphur springs,59645-9088,MT,46.5484,-110.9029
15609,Missoula,59803-1173,MT,46.8701,-113.9953
15608,Libby,59923-9158,MT,48.3883,-115.556
15607,Lewistown,59457-1973,MT,47.0625,-109.4282
15606,Laurel,59044,MT,45.6691,-108.7715
15605,Kila,59920,MT,48.1202,-114.4568
15604,Kalispell,59901,MT,48.2023,-114.3167
15603,Dillon,59725-2531,MT,45.2164,-112.6378
15602,Colstrip,59323-0188,MT,45.8842,-106.6236
15601,Bozeman,59715-3805,MT,45.68,-111.0447
15599,Billings,59105-2369,MT,45.7875,-108.4961
15598,Bigfork,59911,MT,48.0633,-114.0726
15597,Vicksburg,39180-5449,MS,32.3528,-90.8777
15596,Terry,39170-9362,MS,32.0963,-90.2943
15594,Picayune,39466-2427,MS,30.5255,-89.6795
15593,Pearl,39208-6210,MS,32.2746,-90.132
15592,Pearl,39208-5446,MS,32.2746,-90.132
15590,Pearl,39208,MS,32.2746,-90.132
15589,Olive branch,38654-8227,MS,34.9618,-89.8295
15587,Olive branch,38654,MS,34.9618,-89.8295
15585,Madison,39110-9605,MS,32.4618,-90.1154
15584,Madison,39110-6616,MS,32.4618,-90.1154
15582,Hattiesburg,39402-8866,MS,31.3271,-89.2903
15581,Greenville,38701,MS,33.4001,-91.0551
15579,Diamondhead,39525,MS,30.3946,-89.3639
15578,Crawford,39743,MS,33.3015,-88.6148
15577,Corinth,38834,MS,34.9343,-88.5223
15576,Bogue chitto,39629-8388,MS,31.4388,-90.4523
15574,Biloxi,39531-2811,MS,30.396,-88.8854
15573,Big creek,38914-2693,MS,33.8526,-89.4112
15572,Bailey,39320-9762,MS,32.4676,-88.7228
15571,Aberdeen,39730-9739,MS,33.8251,-88.5437
15570,Missoula,59808-9023,MT,46.8701,-113.9953
15569,Great falls,59405-1306,MT,47.5049,-111.2919
15568,Alberton,59820-9321,MT,47.0016,-114.4735
15567,Wentzville,63385-2301,MO,38.8114,-90.8529
15565,Wentzville,63385,MO,38.8114,-90.8529
15563,Vandalia,63382-2442,MO,39.3109,-91.4885
15562,St louis,63117,MO,38.63,-90.19
15561,St louis,63122,MO,38.63,-90.19
15557,Springfield,65809-3374,MO,37.2153,-93.2983
15556,Springfield,65809,MO,37.2153,-93.2983
15555,Saint peters,63376-4277,MO,38.8,-90.62
15554,Saint louis,63146-4938,MO,38.63,-90.19
15553,Saint louis,63146-4547,MO,38.63,-90.19
15552,Saint louis,63144-2009,MO,38.63,-90.19
15551,Saint louis,63131-2613,MO,38.63,-90.19
15550,Saint louis,63130-3720,MO,38.63,-90.19
15549,Saint louis,63129-4701,MO,38.63,-90.19
15547,Saint louis,63129-4212,MO,38.63,-90.19
15545,Saint louis,63128-1106,MO,38.63,-90.19
15544,Saint louis,63124-1601,MO,38.63,-90.19
15543,Saint louis,63124-1559,MO,38.63,-90.19
15541,Saint louis,63122,MO,38.63,-90.19
15540,Saint louis,63116-3049,MO,38.63,-90.19
15539,Saint charles,63304-0317,MO,38.79,-90.5
15537,Saint charles,63303-4434,MO,38.79,-90.5
15535,Saint charles,63301,MO,38.79,-90.5
15533,Rogersville,65742-7584,MO,37.117,-93.0557
15532,Rock port,64482-1641,MO,40.4111,-95.5169
15531,Pineville,64856-9636,MO,36.5945,-94.3841
15530,Perry,63462-1322,MO,39.4312,-91.6752
15529,Ozark,65721-8059,MO,37.0209,-93.206
15528,Ozark,65721-4242,MO,37.0209,-93.206
15527,O fallon,63368-7285,MO,38.77,-90.78
15526,O fallon,63368-6660,MO,38.77,-90.78
15525,Montgomery city,63361-4617,MO,38.9775,-91.5049
15524,Moberly,65270-3006,MO,39.4184,-92.4382
15523,Kearney,64060-8508,MO,39.3678,-94.3622
15522,Kansas city,64152-1783,MO,39.0845,-94.563
15521,Kansas city,64151-8232,MO,39.0845,-94.563
15520,Kansas city,64131-4102,MO,39.0845,-94.563
15518,Kansas city,64114-2155,MO,39.0845,-94.563
15517,Joplin,64804-4904,MO,37.0842,-94.5133
15516,Joplin,64804-2231,MO,37.0842,-94.5133
15514,Jefferson city,65109-6873,MO,38.5774,-92.1724
15513,Independence,64057,MO,39.0911,-94.4155
15512,Independence,64055-7602,MO,39.0911,-94.4155
15511,Independence,64055-4206,MO,39.0911,-94.4155
15510,Independence,64055,MO,39.0911,-94.4155
15508,Gladstone,64119,MO,39.2039,-94.5547
15507,Festus,63028-5626,MO,38.2207,-90.396
15506,Fenton,63026-8003,MO,38.5133,-90.4402
15505,Fenton,63026-6959,MO,38.5133,-90.4402
15504,Essex,63846,MO,36.8126,-89.8615
15503,Crystal city,63019,MO,38.2212,-90.379
15502,Concordia,64020,MO,38.9833,-93.5685
15500,Clayton,63105,MO,38.6426,-90.3237
15498,Branson,65616-9770,MO,36.644,-93.2171
15497,Ballwin,63011,MO,38.595,-90.5469
15494,Woodbury,55125-3534,MN,44.9232,-92.9588
15493,Wayzata,55391-3507,MN,44.9742,-93.507
15492,Waconia,55387-9552,MN,44.8508,-93.7869
15491,Waconia,55387-9448,MN,44.8508,-93.7869
15489,Stewartville,55976,MN,43.8554,-92.4883
15488,St louis park,55416-3236,MN,44.9486,-93.365
15485,St louis park,55416-2949,MN,44.9486,-93.365
15484,Solway,56678-4515,MN,46.78,-92.39
15483,Solway,56678,MN,46.78,-92.39
15482,Shoreview,55126-1215,MN,45.0722,-93.1283
15480,Shakopee,55379,MN,44.798,-93.5269
15478,Saint paul,55129,MN,44.9504,-93.1015
15475,Saint paul,55127-2581,MN,44.9504,-93.1015
15473,Saint paul,55108,MN,44.9504,-93.1015
15472,Saint paul,55103-1369,MN,44.9504,-93.1015
15471,Rushford,55971-9010,MN,43.8083,-91.7529
15469,Roseville,55113,MN,45.0061,-93.1566
15468,Rockville,56369,MN,45.4719,-94.3408
15467,Rochester,55906-7702,MN,44.0233,-92.463
15466,Rochester,55902-3440,MN,44.0233,-92.463
15465,Rochester,55902-1537,MN,44.0233,-92.463
15464,Richfield,55423-2370,MN,44.8766,-93.2878
15463,Red wing,55066-7154,MN,44.5625,-92.5338
15462,Plymouth,55446-2952,MN,45.0065,-93.4665
15460,Owatonna,55060-3973,MN,44.084,-93.2261
15458,Onamia,56359-0500,MN,46.0705,-93.6677
15457,Northfield,55057-3345,MN,44.4582,-93.1612
15456,Mounds view,55112-1541,MN,45.1069,-93.2076
15454,Minneapolis,55432-2194,MN,44.9773,-93.2655
15453,Minneapolis,55416-5235,MN,44.9773,-93.2655
15452,Minneapolis,55411-4168,MN,44.9773,-93.2655
15450,Minneapolis,55410-1257,MN,44.9773,-93.2655
15449,Minneapolis,55409,MN,44.9773,-93.2655
15448,Minneapolis,55401,MN,44.9773,-93.2655
15447,Mendota heights,55118-3631,MN,44.8836,-93.1383
15445,Mahtomedi,55115-2705,MN,45.0697,-92.9516
15444,Mahtomedi,55115,MN,45.0697,-92.9516
15443,Lakeville,55044-4432,MN,44.6501,-93.2433
15442,Lake elmo,55042-9439,MN,44.9958,-92.8794
15440,Lake bronson,56734,MN,48.7355,-96.6628
15438,Hutchinson,55350-6739,MN,44.8877,-94.3697
15437,Hopkins,55305-1486,MN,44.9271,-93.4075
15436,Hastings,55033-9453,MN,44.7427,-92.8519
15435,Golden valley,55416,MN,45.002,-93.3585
15434,Forest lake,55025-1931,MN,45.2788,-92.9853
15433,Fergus falls,56537-1286,MN,46.283,-96.0776
15432,Fergus falls,56537-1223,MN,46.283,-96.0776
15429,Ely,55731-8230,MN,47.9032,-91.8671
15428,Edina,55439-2650,MN,44.8897,-93.3501
15427,Edina,55436-1655,MN,44.8897,-93.3501
15426,Edina,55424,MN,44.8897,-93.3501
15424,Eden prairie,55347-1439,MN,44.8547,-93.4708
15423,Easton,56025-7109,MN,43.7658,-93.9011
15422,Duluth,55804-2217,MN,46.7729,-92.1251
15421,Crystal,55427,MN,45.0376,-93.3593
15419,Columbia heights,55421-4017,MN,45.046,-93.2518
15417,Clear lake,55319,MN,45.44,-93.96
15416,Chanhassen,55317,MN,44.8618,-93.5307
15415,Carver,55315-4556,MN,44.7636,-93.6258
15414,Brooklyn park,55443-5418,MN,45.1005,-93.3444
15412,Bloomington,55438,MN,44.8322,-93.3205
15411,Bloomington,55437-2219,MN,44.8322,-93.3205
15410,Blaine,55449-7301,MN,45.1608,-93.2349
15408,Bemidji,56601-8714,MN,47.4787,-94.8908
15407,Ashby,56309-0151,MN,46.093,-95.8175
15406,Saint robert,65584,MO,37.8281,-92.1777
15405,Saint louis,63138-1445,MO,38.63,-90.19
15402,Saint louis,63131-2901,MO,38.63,-90.19
15400,Saint louis,63129-4647,MO,38.63,-90.19
15399,Monroe city,63456,MO,39.6537,-91.7346
15398,Kansas city,64119,MO,39.0845,-94.563
15397,Kansas city,64113-2215,MO,39.0845,-94.563
15396,Carriere,39426,MS,30.6169,-89.6526
15395,Winona,55987,MN,44.05,-91.6393
15394,Spring valley,55975-4717,MN,43.6869,-92.3891
15393,Middle river,56737,MN,48.31,-96.88
15392,Faribault,55021,MN,44.295,-93.2688
15389,Ely,55731-1021,MN,47.9032,-91.8671
15388,Blaine,55434,MN,45.1608,-93.2349
15386,Troy,48083-6015,MI,42.6056,-83.1499
15385,Sterling heights,48312,MI,42.5803,-83.0302
15384,Southgate,48195,MI,42.2032,-83.2083
15382,Shelby township,48315,MI,,
15381,Muskegon,49441-3151,MI,43.2342,-86.2484
15380,Macomb,48044-2819,MI,42.6741,-82.9029
15379,Grosse pointe park,48230-1849,MI,42.3759,-82.9374
15376,East lansing,48823-7378,MI,42.7355,-84.4852
15374,Dearborn,48124,MI,42.3223,-83.1763
15373,Canadian lakes,49346-9725,MI,,
15372,Brownstown,48183-4856,MI,,
15370,Bloomfield hills,48304,MI,42.5836,-83.2455
15369,Bellaire,49615-8401,MI,44.9803,-85.2112
15368,Ypsilanti,48197-7115,MI,42.2411,-83.613
15367,Whitmore lake,48189-9332,MI,42.4395,-83.7438
15366,White pigeon,49099-9768,MI,41.7981,-85.6433
15365,Troy,48098-2480,MI,42.6056,-83.1499
15364,Troy,48085-5719,MI,42.6056,-83.1499
15363,Troy,48083-6813,MI,42.6056,-83.1499
15361,Tecumseh,49286-1609,MI,42.0039,-83.9449
15360,Suttons bay,49682-9149,MI,44.9767,-85.6506
15358,Sterling heights,48310-4513,MI,42.5803,-83.0302
15356,Spring arbor,49283-9501,MI,42.205,-84.5527
15355,South lyon,48178-1729,MI,42.4514,-83.6592
15353,Saline,48176,MI,42.1667,-83.7816
15351,Saint clair shores,48080-1044,MI,42.4646,-82.9085
15350,Royal oak,48073-3228,MI,42.4895,-83.1446
15349,Pleasant ridge,48069-1113,MI,42.4711,-83.1421
15348,Pinckney,48169,MI,42.4567,-83.9463
15347,Perry,48872-9175,MI,42.8264,-84.2194
15346,Ossineke,49766-9707,MI,44.9022,-83.4425
15345,Niles,49120-7793,MI,41.8298,-86.2542
15344,Newport,48166,MI,42.0023,-83.3085
15343,New boston,48164-9514,MI,42.1625,-83.403
15342,New boston,48164-9196,MI,42.1625,-83.403
15341,New baltimore,48047,MI,42.6811,-82.7369
15339,Midland,48640,MI,43.6156,-84.2472
15335,Macomb,48042-2344,MI,42.6741,-82.9029
15334,Livonia,48152-3671,MI,42.3684,-83.3527
15333,Lansing,48917-3410,MI,42.7338,-84.5554
15332,Lansing,48912-3460,MI,42.7338,-84.5554
15330,Lansing,48910-8374,MI,42.7338,-84.5554
15329,Lansing,48910-1873,MI,42.7338,-84.5554
15327,Lake orion,48362-1247,MI,42.7845,-83.2397
15326,Lake isabella,48893,MI,43.6436,-84.9972
15325,Kewadin,49648-9024,MI,44.9286,-85.3731
15322,Kawkawlin,48631,MI,43.66,-84.0
15321,Kalamazoo,49008-1828,MI,42.2917,-85.5872
15320,Iron river,49935,MI,46.0927,-88.6424
15319,Howell,48843-9487,MI,42.6073,-83.9294
15318,Holland,49423-8749,MI,42.7876,-86.1091
15316,Hemlock,48626-7412,MI,43.4147,-84.2299
15315,Harrison township,48045-3706,MI,42.5881,-82.8178
15314,Harper woods,48225-1747,MI,42.4331,-82.9241
15313,Greenville,48838,MI,43.1775,-85.2528
15312,Grand rapids,49507-3557,MI,42.9632,-85.6679
15311,Grand blanc,48439-1908,MI,42.92,-83.62
15308,Grand blanc,48439,MI,42.92,-83.62
15307,Flint,48503-4535,MI,43.0172,-83.7236
15306,Flat rock,48134,MI,42.0964,-83.2919
15304,Fennville,49408,MI,42.5941,-86.1046
15303,Farmington hills,48335-1214,MI,42.4853,-83.3772
15301,Farmington hills,48334,MI,42.4853,-83.3772
15300,Empire,49630-9499,MI,44.8111,-86.0601
15299,Ellsworth,49729-9681,MI,45.1656,-85.2462
15298,East tawas,48730-9434,MI,44.2795,-83.4903
15297,Dexter,48130,MI,42.3384,-83.8886
15296,Detroit,48213-2270,MI,42.3487,-83.0567
15292,Dearborn heights,48127-4603,MI,42.337,-83.2733
15291,Dearborn heights,48127-2412,MI,42.337,-83.2733
15290,Davison,48423,MI,43.0347,-83.518
15289,Commerce township,48382-1378,MI,42.61,-83.5
15288,Clinton township,48035,MI,42.587,-82.9199
15287,Clarkston,48348-5067,MI,42.7359,-83.4188
15286,Clarkston,48346-4037,MI,42.7359,-83.4188
15281,Canton,48188-2580,MI,42.3074,-83.4869
15280,Brown city,48416,MI,43.2122,-82.9897
15279,Bridgman,49106,MI,41.9431,-86.557
15277,Bloomfield hills,48304,MI,42.5836,-83.2455
15276,Big rapids,49307,MI,43.6981,-85.4837
15275,Bellaire,49615-8497,MI,44.9803,-85.2112
15274,Bay city,48706-6314,MI,43.5945,-83.8889
15272,Bath,48808-9615,MI,42.819,-84.449
15271,Ann arbor,48108-2617,MI,42.2682,-83.7312
15270,Ann arbor,48103,MI,42.2682,-83.7312
15269,Adrian,49221,MI,41.8975,-84.0372
15267,Wiscasset,04578-4278,ME,44.0029,-69.6656
15266,Winslow,04901-0315,ME,44.547,-69.6212
15265,Wells,04090-5000,ME,43.322,-70.5809
15264,Waterville,04901-4734,ME,44.552,-69.6317
15263,Union,04862-3213,ME,44.2115,-69.2742
15262,Turner,04282-3715,ME,44.2565,-70.2562
15261,Rockport,04856-4032,ME,44.1845,-69.0761
15260,Rangeley,04970-4257,ME,44.9664,-70.6428
15258,Portland,04103-5800,ME,43.661,-70.2549
15257,Orono,04473-4048,ME,44.8833,-68.6723
